{"type":"FeatureCollection","features":[{"type":"Feature","properties":{"name":"Gleisbeet","address":"Helsingforser Str. 11-13","postcode":"10243","city":"Berlin","hint":"","ID_Map":"38","bezirk":"Friedrichshain","bezirk_id":"1","lfdnr":"1","label_placement":"2","diff":"1.0,-4.0","comment":"","contact":"","intern comment":"","status":"Laufend","types":"","url":"http://www.gleisbeet.de/","":"","id":"44","tags":[]},"geometry":{"type":"Point","coordinates":[13.4453558846558,52.5099776456387]}},{"type":"Feature","properties":{"name":"Laskerwiese","address":"Laskerstr. 8","postcode":"10245","city":"Berlin","hint":"","ID_Map":"69","bezirk":"Friedrichshain","bezirk_id":"2","lfdnr":"2","label_placement":"2","diff":"1.0,-4.0","comment":"","contact":"","intern comment":"","status":"Laufend","types":"","url":"http://laskerwiese.blogspot.com/","":"","id":"11","tags":[]},"geometry":{"type":"Point","coordinates":[13.466291,52.501077]}},{"type":"Feature","properties":{"name":"MenschenskinderGarten","address":"Fürstenwalder Str. 25","postcode":"10243","city":"Berlin","hint":"Zu erreichen ist der Garten über das Familienzentrum Menschenskinder","ID_Map":"75","bezirk":"Friedrichshain","bezirk_id":"3","lfdnr":"3","label_placement":"2","diff":"1.0,-4.0","comment":"","contact":"Tel. 030-54594906","intern comment":"","status":"Laufend","types":"","url":"http://www.menschenskinder-berlin.eu/nachbarschaftsgarten/","":"","id":"332","tags":[]},"geometry":{"type":"Point","coordinates":[13.4311571109756,52.519944290068]}},{"type":"Feature","properties":{"name":"Mörchenpark","address":"Holzmarktstr. 30","postcode":"10243","city":"Berlin","hint":"","ID_Map":"77","bezirk":"Friedrichshain","bezirk_id":"4","lfdnr":"4","label_placement":"2","diff":"1.0,-4.0","comment":"","contact":"","intern comment":"","status":"Laufend","types":"","url":"http://moerchenpark.de","":"","id":"322","tags":[]},"geometry":{"type":"Point","coordinates":[13.4277273,52.5112641]}},{"type":"Feature","properties":{"name":"Rosa Rose","address":"Jessnerstr. 3","postcode":"10247","city":"Berlin","hint":"Zugang über Jessnerstrasse 3 und 13","ID_Map":"81","bezirk":"Friedrichshain","bezirk_id":"5","lfdnr":"5","label_placement":"2","diff":"1.0,-4.0","comment":"","contact":"","intern comment":"","status":"Laufend","types":"","url":"http://www.rosarose-garten.net","":"","id":"7","tags":[]},"geometry":{"type":"Point","coordinates":[13.4742347087372,52.5132859338978]}},{"type":"Feature","properties":{"name":"Spreeacker","address":"Wilhelmine-Gemberg-Weg 10-14","postcode":"10179","city":"Berlin","hint":"","ID_Map":"98","bezirk":"Friedrichshain","bezirk_id":"6","lfdnr":"6","label_placement":"3","diff":"-4.0,-7.0","comment":"","contact":"Spreeacker e.V.","intern comment":"","status":"Laufend","types":"","url":"","":"","id":"333","tags":[]},"geometry":{"type":"Point","coordinates":[13.4247456118477,52.5108384830799]}},{"type":"Feature","properties":{"name":"Gartenland am Beerenpfuhl","address":"Tangermünder Str. 26-28","postcode":"12627","city":"Berlin","hint":"","ID_Map":"24","bezirk":"Hellersdorf","bezirk_id":"1","lfdnr":"7","label_placement":"2","diff":"1.0,-4.0","comment":"","contact":"","intern comment":"","status":"Laufend","types":"","url":"http://www.helle-promenade.de/236.0.html","":"","id":"354","tags":[]},"geometry":{"type":"Point","coordinates":[13.6071363281724,52.5440157550073]}},{"type":"Feature","properties":{"name":"Gemeinschaftsgarten im Gut Hellersdorf","address":"Alt Hellersdorf 17","postcode":"12629","city":"Berlin","hint":"","ID_Map":"29","bezirk":"Hellersdorf","bezirk_id":"2","lfdnr":"8","label_placement":"2","diff":"1.0,-4.0","comment":"","contact":"gartenbau@prinzessinnengarten.net","intern comment":"","status":"laufend","types":"","url":"https://guthellersdorf.net/ueber/","":"","id":"","tags":[]},"geometry":{"type":"Point","coordinates":[13.5944514,52.5389044]}},{"type":"Feature","properties":{"name":"Generationengarten Pestalozzi-Treff","address":"Pestalozzistr. 1a","postcode":"12623","city":"Berlin","hint":"","ID_Map":"37","bezirk":"Hellersdorf","bezirk_id":"3","lfdnr":"9","label_placement":"2","diff":"1.0,-4.0","comment":"","contact":"Tel: (030) 56 58 69 20","intern comment":"","status":"Laufend","types":"","url":"https://www.hilfelotse-berlin.de/detail/db/berlin/Stadtteilzentrum-Pestalozzi-Treff/aid/28320/","":"","id":"77","tags":[]},"geometry":{"type":"Point","coordinates":[13.614299528836,52.510175960196]}},{"type":"Feature","properties":{"name":"Helle Oase","address":"Tangermünder Str. 127-129","postcode":"12627","city":"Berlin","hint":"","ID_Map":"40","bezirk":"Hellersdorf","bezirk_id":"4","lfdnr":"10","label_placement":"2","diff":"1.0,-4.0","comment":"","contact":"kontakt@helle-oase.de,","intern comment":"der ist eigentlich nicht neu, tauchte aber in der Bestandstabelle nicht auf, habt Rückmeldung bekommen, sind noch da!","status":"laufend","types":"","url":"https://helleoase.wordpress.com/","":"","id":"","tags":[]},"geometry":{"type":"Point","coordinates":[13.6087,52.538829]}},{"type":"Feature","properties":{"name":"Interkultureller Garten Berlin-Lichtenberg","address":"Liebenwalder Str. 12-18","postcode":"13055","city":"Berlin","hint":"","ID_Map":"46","bezirk":"Hohenschönhausen","bezirk_id":"1","lfdnr":"11","label_placement":"2","diff":"1.0,-4.0","comment":"","contact":"","intern comment":"","status":"Laufend","types":"","url":"http://www.interkulturellergarten.de ; http://www.sozdia.de/UmweltKontaktstelle.1327.0.html","":"","id":"18","tags":[]},"geometry":{"type":"Point","coordinates":[13.5010002,52.5364398]}},{"type":"Feature","properties":{"name":"Wir ernten was wir säen","address":"Wiecker Str. 8-10","postcode":"13051","city":"Berlin","hint":"Hohenschönhausen-Nord, Ostseeviertel","ID_Map":"23","bezirk":"Hohenschönhausen","bezirk_id":"2","lfdnr":"12","label_placement":"2","diff":"1.0,-4.0","comment":"","contact":"garteninitiative@sozdia.de","intern comment":"","status":"Laufend","types":"","url":"http://www.sozdia.de/Garteninitiative.914.0.html","":"","id":"56","tags":[]},"geometry":{"type":"Point","coordinates":[13.4959042736801,52.5686330754756]}},{"type":"Feature","properties":{"name":"Bunte Beete","address":"Zeughofstr. 24","postcode":"10997","city":"Berlin","hint":"","ID_Map":"7","bezirk":"Kreuzberg","bezirk_id":"1","lfdnr":"13","label_placement":"2","diff":"0.0,-9.0","comment":"","contact":"","intern comment":"","status":"Laufend","types":"","url":"http://buntebeete.wordpress.com/","":"","id":"13","tags":[]},"geometry":{"type":"Point","coordinates":[13.4358366,52.5014849]}},{"type":"Feature","properties":{"name":"G13 Familienurwald","address":"Glogauer Str. 13","postcode":"10999","city":"Berlin","hint":"","ID_Map":"17","bezirk":"Kreuzberg","bezirk_id":"2","lfdnr":"14","label_placement":"5","diff":"1.0,-3.0","comment":"","contact":"d.leinenbach@gmx.net","intern comment":"","status":"Laufend","types":"","url":"http://glogauer13.wordpress.com/","":"","id":"329","tags":[]},"geometry":{"type":"Point","coordinates":[13.4360363816147,52.4923093291201]}},{"type":"Feature","properties":{"name":"Garten der GraefeKids","address":"Hasenheide 44","postcode":"10967","city":"Berlin","hint":"","ID_Map":"18","bezirk":"Kreuzberg","bezirk_id":"3","lfdnr":"15","label_placement":"3","diff":"-4.0,-2.0","comment":"","contact":"Kontakt: GrafeKids,  Tel.: 680 75 375 ab ca. 14:00 Uhr erreichbar oder per mail: graefe-kids@nachbarschaftshaus.de","intern comment":"","status":"Laufend","types":"","url":"","":"","id":"58","tags":[]},"geometry":{"type":"Point","coordinates":[13.4170275509262,52.4901492415328]}},{"type":"Feature","properties":{"name":"Gemeinschaftsgarten im KGK POG Potsdamer Güterbahnhof","address":"Park am Gleisdreieck/Eingang Bülowstr.","postcode":"10963","city":"Berlin","hint":"","ID_Map":"31","bezirk":"Kreuzberg","bezirk_id":"4","lfdnr":"16","label_placement":"2","diff":"1.0,-4.0","comment":"","contact":"","intern comment":"","status":"Laufend","types":"","url":"https://gruen-berlin.de/gleisdreieck/angebote/gaerten-im-garten","":"","id":"326","tags":[]},"geometry":{"type":"Point","coordinates":[13.3687491217041,52.4966758960629]}},{"type":"Feature","properties":{"name":"Gemeinschaftsgarten Ohlauer Straße 22","address":"Ohlauer Str. 22","postcode":"10999","city":"Berlin","hint":"","ID_Map":"32","bezirk":"Kreuzberg","bezirk_id":"5","lfdnr":"17","label_placement":"0","diff":"-4.0,-5.0","comment":"","contact":"Kevin.Eggebrecht@johanniter.de","intern comment":"","status":"laufend","types":"","url":"","":"","id":"","tags":[]},"geometry":{"type":"Point","coordinates":[13.43043,52.49601]}},{"type":"Feature","properties":{"name":"Generationengarten Begegnungsstätte Falckensteinstraße","address":"Falckensteinstr. 6","postcode":"10997","city":"Berlin","hint":"","ID_Map":"34","bezirk":"Kreuzberg","bezirk_id":"6","lfdnr":"18","label_placement":"2","diff":"1.0,-5.0","comment":"","contact":"","intern comment":"","status":"Laufend","types":"","url":"http://www.falckensteinstrasse.de/garten.htm","":"","id":"71","tags":[]},"geometry":{"type":"Point","coordinates":[13.44256,52.49955]}},{"type":"Feature","properties":{"name":"Generationengarten Kiezanker 36","address":"Cuvrystr. 13/14","postcode":"10997","city":"Berlin","hint":"","ID_Map":"36","bezirk":"Kreuzberg","bezirk_id":"7","lfdnr":"19","label_placement":"5","diff":"1.0,-3.0","comment":"","contact":"Tel: 22502401","intern comment":"","status":"Laufend","types":"","url":"","":"","id":"75","tags":[]},"geometry":{"type":"Point","coordinates":[13.4437725079346,52.49879021348]}},{"type":"Feature","properties":{"name":"Interkulturelle Garten-AG","address":"Mehringdamm 114","postcode":"10965","city":"Berlin","hint":"im Familienzentrum","ID_Map":"43","bezirk":"Kreuzberg","bezirk_id":"8","lfdnr":"20","label_placement":"2","diff":"1.0,-4.0","comment":"","contact":"jeanine.fornacon@googlemail.com,","intern comment":"","status":"Laufend","types":"","url":"","":"","id":"337","tags":[]},"geometry":{"type":"Point","coordinates":[13.385223151451,52.4866658337289]}},{"type":"Feature","properties":{"name":"Interkultureller Garten auf dem Kinderbauernhof","address":"Wiener Str. 59b","postcode":"10999","city":"Berlin","hint":"im Görlitzer Park","ID_Map":"45","bezirk":"Kreuzberg","bezirk_id":"9","lfdnr":"21","label_placement":"5","diff":"1.0,-3.0","comment":"","contact":"Tel: 030/69 53 52 93 , Claudia Hiesl","intern comment":"","status":"Laufend","types":"","url":"","":"","id":"15","tags":[]},"geometry":{"type":"Point","coordinates":[13.4378234,52.4957523]}},{"type":"Feature","properties":{"name":"Interkultureller Kiez-Garten","address":"Friedrichstr. 2","postcode":"10969","city":"Berlin","hint":"am Mehringplatz","ID_Map":"56","bezirk":"Kreuzberg","bezirk_id":"10","lfdnr":"22","label_placement":"2","diff":"1.0,-4.0","comment":"","contact":"","intern comment":"","status":"Laufend","types":"","url":"","":"","id":"338","tags":[]},"geometry":{"type":"Point","coordinates":[13.391777772415,52.4999369190649]}},{"type":"Feature","properties":{"name":"Prinzessinnengarten","address":"Prinzenstr. 35-38","postcode":"10969","city":"Berlin","hint":"Moritzplatz","ID_Map":"92","bezirk":"Kreuzberg","bezirk_id":"11","lfdnr":"23","label_placement":"2","diff":"1.0,-4.0","comment":"","contact":"","intern comment":"","status":"Laufend","types":"","url":"http://prinzessinnengarten.net/","":"","id":"9","tags":[]},"geometry":{"type":"Point","coordinates":[13.4112125289749,52.503034678951]}},{"type":"Feature","properties":{"name":"Rosenduft","address":"Möckernstr./Hornstr.","postcode":"10963","city":"Berlin","hint":"Eingang in den Park am Gleisdreieck","ID_Map":"94","bezirk":"Kreuzberg","bezirk_id":"12","lfdnr":"24","label_placement":"2","diff":"1.0,-4.0","comment":"","contact":"","intern comment":"","status":"Laufend","types":"","url":"http://www.suedost-ev.de/interkultureller_garten/interkultureller_garten.php","":"","id":"17","tags":[]},"geometry":{"type":"Point","coordinates":[13.3785937936401,52.4949150143333]}},{"type":"Feature","properties":{"name":"Ton Steine Gärten","address":"Bethaniendamm 26","postcode":"10997","city":"Berlin","hint":"","ID_Map":"102","bezirk":"Kreuzberg","bezirk_id":"13","lfdnr":"25","label_placement":"2","diff":"1.0,-4.0","comment":"","contact":"","intern comment":"","status":"Laufend","types":"","url":"http://gaerten-am-mariannenplatz.blogspot.com/","":"","id":"16","tags":[]},"geometry":{"type":"Point","coordinates":[13.423824,52.505077]}},{"type":"Feature","properties":{"name":"Urbangarten","address":"Graefestr. 61a","postcode":"10967","city":"Berlin","hint":"","ID_Map":"107","bezirk":"Kreuzberg","bezirk_id":"14","lfdnr":"26","label_placement":"0","diff":"-4.0,-5.0","comment":"","contact":"","intern comment":"Ansprechpartnerin ist Inga Selck, Fläche gehört dem BA","status":"laufend","types":"","url":"https://www.facebook.com/pg/UrbangartenKreuzberg/about/?ref=page_internal","":"","id":"","tags":[]},"geometry":{"type":"Point","coordinates":[13.416708,52.490007]}},{"type":"Feature","properties":{"name":"Alfreds Garten","address":"Alfred-Randt-Str. 11","postcode":"12559","city":"Berlin","hint":"","ID_Map":"2","bezirk":"Köpenick","bezirk_id":"1","lfdnr":"27","label_placement":"0","diff":"-4.0,0.0","comment":"","contact":"","intern comment":"von Sonja Himmelbeet","status":"laufend","types":"","url":"http://himmelbeet.de/aktuelle-projekte/alfreds-garten-in-koepenick/","":"","id":"","tags":[]},"geometry":{"type":"Point","coordinates":[13.5990562,52.4389729]}},{"type":"Feature","properties":{"name":"Garten der Hoffnung / Bustan-ul-amal","address":"Alfred-Randt-Str. 19","postcode":"12559","city":"Berlin","hint":"","ID_Map":"19","bezirk":"Köpenick","bezirk_id":"2","lfdnr":"28","label_placement":"2","diff":"1.0,-4.0","comment":"","contact":"","intern comment":"","status":"Laufend","types":"","url":"http://www.garten-der-hoffnung.net","":"","id":"306","tags":[]},"geometry":{"type":"Point","coordinates":[13.60458,52.440282]}},{"type":"Feature","properties":{"name":"Interkultureller Schulgarten Oberschöneweide","address":"Kottmeierstr. 2","postcode":"12459","city":"Berlin","hint":"","ID_Map":"57","bezirk":"Köpenick","bezirk_id":"3","lfdnr":"29","label_placement":"2","diff":"1.0,-4.0","comment":"","contact":"","intern comment":"","status":"Laufend","types":"","url":"","":"","id":"25","tags":[]},"geometry":{"type":"Point","coordinates":[13.5243884834671,52.4626830736898]}},{"type":"Feature","properties":{"name":"Lichtgarten","address":"Alter Markt 6","postcode":"12555","city":"Berlin","hint":"","ID_Map":"72","bezirk":"Köpenick","bezirk_id":"4","lfdnr":"30","label_placement":"2","diff":"1.0,-8.0","comment":"","contact":"NadinFreitag@gmx.de","intern comment":"angeschrieben 04.12. Kontakt kam sehr spät rein","status":"","types":"","url":"https://lichtgarten.blogger.de/","":"","id":"","tags":[]},"geometry":{"type":"Point","coordinates":[13.578858,52.446142]}},{"type":"Feature","properties":{"name":"Nachbarschaftsgarten Haus Müggelspree","address":"Am Schloßberg 1","postcode":"12559","city":"Berlin","hint":"","ID_Map":"80","bezirk":"Köpenick","bezirk_id":"5","lfdnr":"31","label_placement":"2","diff":"1.0,-4.0","comment":"","contact":"mueggelspree@stephanus.org, Tel. 030 34 35 41 0","intern comment":"","status":"laufend","types":"","url":"http://www.stephanus.org/standorte/haus-mueggelspree-in-berlin-koepenick/startseite/","":"","id":"","tags":[]},"geometry":{"type":"Point","coordinates":[13.584299,52.443557]}},{"type":"Feature","properties":{"name":"Urban Garden HTW","address":"Wilhelminenhofstr. 75A","postcode":"12437","city":"Berlin","hint":"","ID_Map":"106","bezirk":"Köpenick","bezirk_id":"6","lfdnr":"32","label_placement":"2","diff":"1.0,-4.0","comment":"","contact":"jennifer.hill@student.htw-berlin.de , 030 50190","intern comment":"","status":"laufend","types":"","url":"https://www.facebook.com/pg/urbangarden.htw.berlin/about/?ref=page_internal","":"","id":"","tags":[]},"geometry":{"type":"Point","coordinates":[13.52668,52.457114]}},{"type":"Feature","properties":{"name":"Wuhlegarten","address":"Cardinalplatz 1c","postcode":"12555","city":"Berlin","hint":"","ID_Map":"109","bezirk":"Köpenick","bezirk_id":"7","lfdnr":"33","label_placement":"2","diff":"1.0,-4.0","comment":"","contact":"","intern comment":"","status":"Laufend","types":"","url":"http://wuhlegarten.de","":"","id":"12","tags":[]},"geometry":{"type":"Point","coordinates":[13.571,52.45573]}},{"type":"Feature","properties":{"name":"Kiezgarten Fischerstraße","address":"Fischerstr. 19/Zobtener Str. 61","postcode":"10317","city":"Berlin","hint":"","ID_Map":"61","bezirk":"Lichtenberg","bezirk_id":"1","lfdnr":"34","label_placement":"2","diff":"1.0,-4.0","comment":"","contact":"kontakt@kiezgarten.de,","intern comment":"","status":"laufend","types":"","url":"http://kiezgarten.de/","":"","id":"","tags":[]},"geometry":{"type":"Point","coordinates":[13.4937148531562,52.4959042161294]}},{"type":"Feature","properties":{"name":"Kiezgarten Heinrichtreff","address":"Heinrichstr. 32","postcode":"10317","city":"Berlin","hint":"","ID_Map":"62","bezirk":"Lichtenberg","bezirk_id":"2","lfdnr":"35","label_placement":"2","diff":"1.0,-4.0","comment":"http://nobbin.rasalhague.uberspace.de/downloads/gartenfreund_okt17.pdf","contact":"","intern comment":"","status":"Laufend","types":"","url":"http://www.stadtumbau-berlin.de/Kiezgarten-Heinrichstrasse.5756.0.html","":"","id":"52","tags":[]},"geometry":{"type":"Point","coordinates":[13.50013,52.50623]}},{"type":"Feature","properties":{"name":"Lichtenberger Stadtgarten","address":"Allee der Kosmonauten 23a","postcode":"10315","city":"Berlin","hint":"im Landschaftspark Herzberge, neben den Gewächshäußern","ID_Map":"71","bezirk":"Lichtenberg","bezirk_id":"3","lfdnr":"36","label_placement":"2","diff":"1.0,-4.0","comment":"","contact":"","intern comment":"","status":"Laufend","types":"","url":"http://www.stadtgarten.org/","":"","id":"48","tags":[]},"geometry":{"type":"Point","coordinates":[13.5130832470131,52.5261145756128]}},{"type":"Feature","properties":{"name":"GU Blume","address":"Blumberger Damm 163-165","postcode":"12685","city":"Berlin","hint":"","ID_Map":"39","bezirk":"Marzahn","bezirk_id":"1","lfdnr":"37","label_placement":"2","diff":"1.0,-4.0","comment":"","contact":"Deborah Brüggemann und ich bin die Ehrenamtskoordinatorin der Gemeinschaftsunterkunft.  ehrenamt-blumberger@prisod-wohnen.de","intern comment":"","status":"laufend","types":"","url":"https://www.prisod.de/index.php/projekte/35-pricing-table/detailed/180-ein-interkultureller-garten-fuer-alle","":"","id":"","tags":[]},"geometry":{"type":"Point","coordinates":[13.57339,52.5476]}},{"type":"Feature","properties":{"name":"Interkultureller Garten Marzahn","address":"Golliner Str. 11","postcode":"12689","city":"Berlin","hint":"","ID_Map":"50","bezirk":"Marzahn","bezirk_id":"2","lfdnr":"38","label_placement":"2","diff":"1.0,-4.0","comment":"","contact":"","intern comment":"","status":"Laufend","types":"","url":"http://www.stadtumbau-berlin.de/1408.html","":"","id":"19","tags":[]},"geometry":{"type":"Point","coordinates":[13.5809682209015,52.5681139025586]}},{"type":"Feature","properties":{"name":"Spiel/Feld Marzahn","address":"Mühlenbecker Weg","postcode":"12679","city":"Berlin","hint":"auf der Brache bei der Peter-Pan-Grundschule, direkt vor dem Altenpflegeheim Alpenland","ID_Map":"97","bezirk":"Marzahn","bezirk_id":"3","lfdnr":"39","label_placement":"2","diff":"1.0,-4.0","comment":"","contact":"","intern comment":"","status":"Laufend","types":"","url":"http://www.spielfeldmarzahn.de","":"","id":"361","tags":[]},"geometry":{"type":"Point","coordinates":[13.5502469015357,52.54688524541]}},{"type":"Feature","properties":{"name":"Krausnickpark","address":"Oranienburger Str. 20","postcode":"10178","city":"Berlin","hint":"","ID_Map":"67","bezirk":"Mitte","bezirk_id":"1","lfdnr":"40","label_placement":"2","diff":"1.0,-4.0","comment":"http://www.berlin.de/ba-mitte/aktuelles/pressemitteilungen/2007/pressemitteilung.235822.php","contact":"","intern comment":"","status":"","types":"","url":"https://www.berliner-stadtplan.com/poi/32310_Krausnickpark-Berlin-Mitte","":"","id":"346","tags":[]},"geometry":{"type":"Point","coordinates":[13.3966729153442,52.5243160750683]}},{"type":"Feature","properties":{"name":"Max Pflanzen","address":"Singerstr. 8a","postcode":"10179","city":"Berlin","hint":"Der Garten befindet sich auf der Rückseite des Max-Planck-Gymnasiums, neben der \"Kindergärten City\"","ID_Map":"74","bezirk":"Mitte","bezirk_id":"2","lfdnr":"41","label_placement":"2","diff":"1.0,-4.0","comment":"","contact":"Frau Kadikowski, Seki der Schule:  030/ 847 1188 30 oder 030/ 847 1188 31","intern comment":"","status":"Laufend","types":"","url":"http://www.mpg-berlin.de/projekt-der-max-pflanzen-gruppe-seit-april-2015-erfolgreich/","":"","id":"423","tags":[]},"geometry":{"type":"Point","coordinates":[13.424131,52.516365]}},{"type":"Feature","properties":{"name":"Tucholsky Gärten","address":"Gartenstr. 107","postcode":"10155","city":"Berlin","hint":"","ID_Map":"104","bezirk":"Mitte","bezirk_id":"3","lfdnr":"42","label_placement":"2","diff":"1.0,-4.0","comment":"","contact":"Susanne Gerber  Tucholskystraße 48 0174 3040503 cu@cucusi.de","intern comment":"","status":"laufend","types":"","url":"","":"","id":"","tags":[]},"geometry":{"type":"Point","coordinates":[13.392109,52.52963]}},{"type":"Feature","properties":{"name":"Zaubergarten","address":"Invalidenstr. 43","postcode":"10115","city":"Berlin","hint":"hinter dem Naturkundemuseum","ID_Map":"110","bezirk":"Mitte","bezirk_id":"4","lfdnr":"43","label_placement":"2","diff":"1.0,-4.0","comment":"","contact":"","intern comment":"","status":"","types":"","url":"http://www.oekophysiologie.hu-berlin.de/intranet/studfach/AK/zaubergarten","":"","id":"352","tags":[]},"geometry":{"type":"Point","coordinates":[13.37909,52.530289]}},{"type":"Feature","properties":{"name":"Zola-Garten","address":"Zolastr.","postcode":"10178","city":"Berlin","hint":"","ID_Map":"111","bezirk":"Mitte","bezirk_id":"5","lfdnr":"44","label_placement":"2","diff":"1.0,-4.0","comment":"","contact":"mail@ankewestermann.de","intern comment":"über Grünanteil","status":"laufend","types":"","url":"https://gruenanteil.net/projects/de/zola-garten","":"","id":"","tags":[]},"geometry":{"type":"Point","coordinates":[13.411583,52.527946]}},{"type":"Feature","properties":{"name":"CRCLR-Gemeinschaftsgarten","address":"Am Sudhaus 2","postcode":"12053","city":"Berlin","hint":"","ID_Map":"1","bezirk":"Neukölln","bezirk_id":"1","lfdnr":"45","label_placement":"0","diff":"-4.0,0.0","comment":"","contact":"Annette.Biernath@degewo.de","intern comment":"","status":"laufend","types":"","url":"http://agoracollective.org/events/agora-gartenfest/","":"","id":"","tags":[]},"geometry":{"type":"Point","coordinates":[13.4305302,52.4790823]}},{"type":"Feature","properties":{"name":"Allmende-Kontor","address":"Tempelhofer Feld/Eingang Oderstr.","postcode":"12049","city":"Berlin","hint":"","ID_Map":"3","bezirk":"Neukölln","bezirk_id":"2","lfdnr":"46","label_placement":"0","diff":"-4.0,0.0","comment":"","contact":"","intern comment":"","status":"Laufend","types":"","url":"http://www.allmende-kontor.de/","":"","id":"5","tags":[]},"geometry":{"type":"Point","coordinates":[13.41673,52.47459]}},{"type":"Feature","properties":{"name":"Die Gärtnerei","address":"Hermannstr. 84","postcode":"12051","city":"Berlin","hint":"","ID_Map":"11","bezirk":"Neukölln","bezirk_id":"3","lfdnr":"47","label_placement":"2","diff":"1.0,-4.0","comment":"","contact":"info@diegaertnerei.berlin","intern comment":"bin mir nicht sicher, ob wir sie mitaufnehmen, Gudrun meint das ist eher ein Bildungsprojekt","status":"laufend","types":"","url":"http://diegaertnerei.berlin/gartenschule/","":"","id":"","tags":[]},"geometry":{"type":"Point","coordinates":[13.42894,52.47137]}},{"type":"Feature","properties":{"name":"Esperanto-Garten","address":"Schudomastr. 32","postcode":"12055","city":"Berlin","hint":"","ID_Map":"13","bezirk":"Neukölln","bezirk_id":"4","lfdnr":"48","label_placement":"2","diff":"1.0,-4.0","comment":"","contact":"rolfkemnitzer@yahoo.de, Rolf Kemnitzer John-Schehr-Straße 36 10407 Berlin Tel: 0176 84823747","intern comment":"","status":"laufend","types":"","url":"","":"","id":"","tags":[]},"geometry":{"type":"Point","coordinates":[13.453439,52.4725802]}},{"type":"Feature","properties":{"name":"Gemeinschaftsgarten in der KGK NCR","address":"Sonnenallee 187","postcode":"12059","city":"Berlin","hint":"","ID_Map":"30","bezirk":"Neukölln","bezirk_id":"5","lfdnr":"49","label_placement":"2","diff":"1.0,-4.0","comment":"","contact":"koloniencr@gmx.de,  0177 215 80 06 > Sabine Karau","intern comment":"Naturnaher Mehrgenerationengarten >Projektgarten unter dem Motto „naturgemäßes generationsübergreifendes Gärtnern“ f","status":"laufend","types":"","url":"http://map.neue-nachbarschaft.de/projekt/142/35","":"","id":"","tags":[]},"geometry":{"type":"Point","coordinates":[13.45102,52.47602]}},{"type":"Feature","properties":{"name":"Karma Garten","address":"Richardplatz 3K","postcode":"12055","city":"Berlin","hint":"","ID_Map":"58","bezirk":"Neukölln","bezirk_id":"6","lfdnr":"50","label_placement":"7","diff":"0.0,-2.0","comment":"","contact":"hello@karma-kultur.de, Larissa Krause","intern comment":"zwischen Richardplatz und Donaustraße","status":"laufend","types":"","url":"","":"","id":"","tags":[]},"geometry":{"type":"Point","coordinates":[13.446138,52.475304]}},{"type":"Feature","properties":{"name":"Kids' Garden","address":"Hobrechtstr. 67","postcode":"12047","city":"Berlin","hint":"","ID_Map":"60","bezirk":"Neukölln","bezirk_id":"7","lfdnr":"51","label_placement":"5","diff":"0.0,0.0","comment":"http://kidsgardenberlin.wordpress.com","contact":"info@gruen-fuer-kinder.de","intern comment":"","status":"Laufend","types":"","url":"http://www.gruen-fuer-kinder.de","":"","id":"33","tags":[]},"geometry":{"type":"Point","coordinates":[13.4267985105896,52.4920125714627]}},{"type":"Feature","properties":{"name":"Klunkergarten","address":"Karl-Marx-Str. 66","postcode":"12043","city":"Berlin","hint":"","ID_Map":"66","bezirk":"Neukölln","bezirk_id":"8","lfdnr":"52","label_placement":"2","diff":"1.0,-4.0","comment":"","contact":"klunkergarten@horstwirtschaft.de,","intern comment":"","status":"laufend","types":"","url":"","":"","id":"","tags":[]},"geometry":{"type":"Point","coordinates":[13.43306,52.482191]}},{"type":"Feature","properties":{"name":"Käthes Garten","address":"Käthe-Dorsch-Ring 2-8","postcode":"12353","city":"Berlin","hint":"","ID_Map":"59","bezirk":"Neukölln","bezirk_id":"9","lfdnr":"53","label_placement":"2","diff":"1.0,-4.0","comment":"","contact":"Ansprechpartnerin ist Annett Biernath vom Kundenzentrum Süd der degewo (Anette.Biernath@degewo.de)","intern comment":"von der Degewo startet  Gropiusstadt Mieter*innengärten","status":"laufend","types":"","url":"https://www.degewo.de/wohnen-in-berlin/berlin-erleben/termine-veranstaltungen/veranstaltung/veranstaltung/kaethes-garten/","":"","id":"","tags":[]},"geometry":{"type":"Point","coordinates":[13.478147,52.424848]}},{"type":"Feature","properties":{"name":"Lern- und Nachbarschaftsgarten im Reuterkiez","address":"Hobrechtstr. 55","postcode":"10967","city":"Berlin","hint":"Zugang über Hobrechtstraße 55 hinter dem Ökozentrum für Jugend und Beruf oder Kottbusser Damm 80","ID_Map":"70","bezirk":"Neukölln","bezirk_id":"10","lfdnr":"54","label_placement":"7","diff":"0.0,-1.0","comment":"","contact":"","intern comment":"","status":"Laufend","types":"","url":"","":"","id":"61","tags":[]},"geometry":{"type":"Point","coordinates":[13.4240785713027,52.4917550169943]}},{"type":"Feature","properties":{"name":"Perivoli ","address":"Koppelweg 102","postcode":"12347","city":"Berlin","hint":"Ecke Schlangenweg, Neben Kolonie Guter Wille","ID_Map":"89","bezirk":"Neukölln","bezirk_id":"11","lfdnr":"55","label_placement":"2","diff":"1.0,-4.0","comment":"","contact":"","intern comment":"","status":"Laufend","types":"","url":"http://www.foerderverein-tospiti.de/perivoli","":"","id":"23","tags":[]},"geometry":{"type":"Point","coordinates":[13.416386,52.444687]}},{"type":"Feature","properties":{"name":"Permakultur Datsche","address":"Britzer Damm 54b","postcode":"12347","city":"Berlin","hint":"in KGK \"Am Braunschweiger Ufer\"","ID_Map":"90","bezirk":"Neukölln","bezirk_id":"12","lfdnr":"56","label_placement":"2","diff":"1.0,-4.0","comment":"","contact":"datsche@riseup.net ; Jasmin","intern comment":"","status":"laufend","types":"","url":"","":"","id":"357","tags":[]},"geometry":{"type":"Point","coordinates":[13.4350136759185,52.4574530973885]}},{"type":"Feature","properties":{"name":"Prachttomate","address":"Bornsdorfer Str. 9-11","postcode":"12053","city":"Berlin","hint":"","ID_Map":"91","bezirk":"Neukölln","bezirk_id":"13","lfdnr":"57","label_placement":"2","diff":"1.0,-4.0","comment":"","contact":"","intern comment":"","status":"Laufend","types":"","url":"","":"","id":"343","tags":[]},"geometry":{"type":"Point","coordinates":[13.4370038184547,52.477021385549]}},{"type":"Feature","properties":{"name":"Pyramidengarten","address":"Columbiadamm 120","postcode":"10965","city":"Berlin","hint":"","ID_Map":"93","bezirk":"Neukölln","bezirk_id":"14","lfdnr":"58","label_placement":"2","diff":"1.0,-4.0","comment":"","contact":"","intern comment":"","status":"Laufend","types":"","url":"http://www.pyramidengarten-berlin.de/","":"","id":"6","tags":[]},"geometry":{"type":"Point","coordinates":[13.4082104293436,52.4820499734563]}},{"type":"Feature","properties":{"name":"Rübezahl","address":"Tempelhofer Feld/Eingang Oderstr.","postcode":"12049","city":"Berlin","hint":"","ID_Map":"95","bezirk":"Neukölln","bezirk_id":"15","lfdnr":"59","label_placement":"2","diff":"1.0,-4.0","comment":"","contact":"","intern comment":"","status":"Laufend","types":"","url":"http://www.ruebezahl-tempelhof.de","":"","id":"38","tags":[]},"geometry":{"type":"Point","coordinates":[13.4182963015747,52.470768283161]}},{"type":"Feature","properties":{"name":"Stadtteilgarten Schillerkiez","address":"Tempelhofer Feld/Eingang Oderstr.","postcode":"12049","city":"Berlin","hint":"","ID_Map":"100","bezirk":"Neukölln","bezirk_id":"16","lfdnr":"60","label_placement":"2","diff":"1.0,-4.0","comment":"","contact":"","intern comment":"","status":"Laufend","types":"","url":"http://schillerkiez.blogsport.de/","":"","id":"14","tags":[]},"geometry":{"type":"Point","coordinates":[13.415463888855,52.4772250250878]}},{"type":"Feature","properties":{"name":"Trial & Error Gartenlabor","address":"Braunschweiger Str. 80","postcode":"12055","city":"Berlin","hint":"","ID_Map":"103","bezirk":"Neukölln","bezirk_id":"17","lfdnr":"61","label_placement":"0","diff":"-3.0,0.0","comment":"","contact":"","intern comment":"irgendwo war der schon gelistet, finde ich aber nicht mehr","status":"laufend","types":"","url":"https://www.trial-error.org/workshops-events/gartenlabor/","":"","id":"","tags":[]},"geometry":{"type":"Point","coordinates":[13.442531,52.470704]}},{"type":"Feature","properties":{"name":"Wutzkygarten im Nachbarschaftszentrum","address":"Wutzkyallee 88-98","postcode":"12353","city":"Berlin","hint":"Grophiusstadt; auf dem Gelände des bezirklichen Nachbarschaftszentrums Wutzkyallee","ID_Map":"82","bezirk":"Neukölln","bezirk_id":"18","lfdnr":"62","label_placement":"2","diff":"1.0,-4.0","comment":"","contact":"","intern comment":"Info kam vom QM Lipzichalle, ich lasse es bestätigen, bzw. frage nach dem Namen der Inis","status":"laufend","types":"","url":"","":"","id":"","tags":[]},"geometry":{"type":"Point","coordinates":[13.471849,52.42055]}},{"type":"Feature","properties":{"name":"ZusammenWachsen","address":"Buschkrugallee 175","postcode":"12359","city":"Berlin","hint":"U7 Parchimer Allee, in KGK „Am Buschkrug“, Parzelle 360","ID_Map":"112","bezirk":"Neukölln","bezirk_id":"19","lfdnr":"63","label_placement":"2","diff":"1.0,-4.0","comment":"","contact":"","intern comment":"","status":"Laufend","types":"","url":"","":"","id":"382","tags":[]},"geometry":{"type":"Point","coordinates":[13.4542095066072,52.4482912241847]}},{"type":"Feature","properties":{"name":"Bunter Garten Buchholz","address":"Aubertstr. 1","postcode":"13127","city":"Berlin","hint":"","ID_Map":"8","bezirk":"Pankow","bezirk_id":"1","lfdnr":"64","label_placement":"2","diff":"1.0,-4.0","comment":"","contact":"bunter.garten.buchholz@googlemail.com ; karlludwighoffmann@googlemail.com, Karl-Ludwig Hoffmann Bunter Garten Buchholz e.V. Vorsitzender, Garten-Tel: 01577-4700768","intern comment":"","status":"Laufend","types":"","url":"","":"","id":"26","tags":[]},"geometry":{"type":"Point","coordinates":[13.4166387140862,52.6084526101689]}},{"type":"Feature","properties":{"name":"Interkultureller Gemeinschaftsgarten Garten-Buch","address":"Groscurthstr. 33","postcode":"13125","city":"Berlin","hint":"","ID_Map":"53","bezirk":"Pankow","bezirk_id":"2","lfdnr":"65","label_placement":"2","diff":"1.0,-4.0","comment":"","contact":"info@ubb.de, Ilona Winter Umweltbüro für Berlin-Brandenburg e.V. Ueckermünder Str. 3 10439 Berlin   Tel. 030/ 421 37 00","intern comment":"","status":"laufend","types":"","url":"","":"","id":"","tags":[]},"geometry":{"type":"Point","coordinates":[13.497983,52.631601]}},{"type":"Feature","properties":{"name":"Bohnen für die Marie","address":"Marienburger Str. 41","postcode":"10405","city":"Berlin","hint":"","ID_Map":"6","bezirk":"Prenzlauer Berg","bezirk_id":"1","lfdnr":"66","label_placement":"2","diff":"1.0,-4.0","comment":"","contact":"","intern comment":"","status":"Laufend","types":"","url":"http://freundeskreismarie.wordpress.com/","":"","id":"40","tags":[]},"geometry":{"type":"Point","coordinates":[13.4243811,52.5349536]}},{"type":"Feature","properties":{"name":"Kids-Kiezgarten in der KGA Bornholm II","address":"Ibsenstr. 20","postcode":"10439","city":"Berlin","hint":"","ID_Map":"","bezirk":"Prenzlauer Berg","bezirk_id":"2","lfdnr":"67","label_placement":"2","diff":"1.0,-4.0","comment":"","contact":"","intern comment":"Garten, der von der Schreberjugend in Kooperation mit dem Kleingartenverein bewirtschaftet wird","status":"laufend","types":"","url":"","":"","id":"","tags":[]},"geometry":{"type":"Point","coordinates":[13.406544,52.5556471]}},{"type":"Feature","properties":{"name":"Kiezgarten Schliemannstraße","address":"Schliemannstr. 8","postcode":"10437","city":"Berlin","hint":"","ID_Map":"63","bezirk":"Prenzlauer Berg","bezirk_id":"3","lfdnr":"68","label_placement":"2","diff":"1.0,-4.0","comment":"","contact":"","intern comment":"","status":"Laufend","types":"","url":"","":"","id":"35","tags":[]},"geometry":{"type":"Point","coordinates":[13.4181425178604,52.5418983515158]}},{"type":"Feature","properties":{"name":"Peace of Land","address":"Am Weingarten 14","postcode":"10407","city":"Berlin","hint":"","ID_Map":"88","bezirk":"Prenzlauer Berg","bezirk_id":"4","lfdnr":"69","label_placement":"2","diff":"1.0,-4.0","comment":"","contact":"Stefan Schneider, stefan@storyhotel.eu","intern comment":"","status":"laufend","types":"","url":"http://www.peaceof.land/","":"","id":"","tags":[]},"geometry":{"type":"Point","coordinates":[13.458547,52.534667]}},{"type":"Feature","properties":{"name":"Tomate sucht Gießkanne","address":"Heinrich-Roller-Str. 18","postcode":"","city":"Berlin","hint":"Friedhofgelände gegenüber, Eingang über Heinrich-Roller-Straße, gegenüber der Grundschule","ID_Map":"101","bezirk":"Prenzlauer Berg","bezirk_id":"5","lfdnr":"70","label_placement":"5","diff":"1.0,-2.0","comment":"","contact":"Grüne Liga, Anke Küttner: anke.kuettner@grueneliga-berlin.de","intern comment":"","status":"","types":"","url":"https://www.grueneliga-berlin.de/themen-projekte2/stadtbegruenung/tomate-sucht-giesskanne/","":"","id":"","tags":[]},"geometry":{"type":"Point","coordinates":[13.423366,52.530402]}},{"type":"Feature","properties":{"name":"Bettinchen","address":"Senftenberger Ring 45","postcode":"13435","city":"Berlin","hint":"","ID_Map":"4","bezirk":"Reinickendorf","bezirk_id":"1","lfdnr":"71","label_placement":"2","diff":"1.0,-4.0","comment":"","contact":"","intern comment":"","status":"Laufend","types":"","url":"","":"","id":"327","tags":[]},"geometry":{"type":"Point","coordinates":[13.3612015877662,52.6053446010196]}},{"type":"Feature","properties":{"name":"Garten und Seele","address":"Akazienstr. 27","postcode":"10823","city":"Berlin","hint":"","ID_Map":"22","bezirk":"Schöneberg","bezirk_id":"1","lfdnr":"72","label_placement":"2","diff":"1.0,-4.0","comment":"","contact":"Aljona Nowokreschenow; aljona@garten-und-seele.de","intern comment":"von Grünanteil, schreibe ich an_ 04.12._CH","status":"","types":"","url":"http://garten-und-seele.de/","":"","id":"","tags":[]},"geometry":{"type":"Point","coordinates":[13.3551337,52.4867091]}},{"type":"Feature","properties":{"name":"Gärten der Künste","address":"Pallasstr. 6a","postcode":"10781","city":"Berlin","hint":"","ID_Map":"20","bezirk":"Schöneberg","bezirk_id":"2","lfdnr":"73","label_placement":"2","diff":"1.0,-4.0","comment":"","contact":"","intern comment":"","status":"Laufend","types":"","url":"","":"","id":"64","tags":[]},"geometry":{"type":"Point","coordinates":[13.3584058846558,52.4947284411823]}},{"type":"Feature","properties":{"name":"Kiezinseln Schöneberg","address":"Cheruskerstr. 23a","postcode":"10829","city":"Berlin","hint":"","ID_Map":"64","bezirk":"Schöneberg","bezirk_id":"3","lfdnr":"74","label_placement":"2","diff":"1.0,-4.0","comment":"","contact":"","intern comment":"","status":"Laufend","types":"","url":"http://www.taeks.de/familie-und-nachbarschaft/kiezinseln/","":"","id":"68","tags":[]},"geometry":{"type":"Point","coordinates":[13.35861,52.48118]}},{"type":"Feature","properties":{"name":"Pallasseum","address":"Pallasstr. 6","postcode":"10781","city":"Berlin","hint":"","ID_Map":"87","bezirk":"Schöneberg","bezirk_id":"4","lfdnr":"75","label_placement":"0","diff":"-4.0,0.0","comment":"","contact":"pallasgaerten@gmx.de,","intern comment":"","status":"laufend","types":"","url":"","":"","id":"","tags":[]},"geometry":{"type":"Point","coordinates":[13.358989,52.49486]}},{"type":"Feature","properties":{"name":"Charlottes Garten","address":"Wansdorfer Steig 16","postcode":"13587","city":"Berlin","hint":"","ID_Map":"10","bezirk":"Spandau","bezirk_id":"1","lfdnr":"76","label_placement":"2","diff":"1.0,-4.0","comment":"","contact":"JenniferSchmieder@gmx.de","intern comment":"eine ehemalige, die dort gärtnerte meinte, zu ihrer Zeit, war das öffentlich...","status":"","types":"","url":"https://charlottesgarten.wordpress.com/","":"","id":"","tags":[]},"geometry":{"type":"Point","coordinates":[13.2050326,52.5567097]}},{"type":"Feature","properties":{"name":"Familiengarten der VillaNova","address":"Rauchstr. 66","postcode":"13587","city":"Berlin","hint":"","ID_Map":"14","bezirk":"Spandau","bezirk_id":"2","lfdnr":"77","label_placement":"0","diff":"-6.0,-6.0","comment":"","contact":"Sabina.Adleff@kompaxx.de","intern comment":"Über Agnes (Spandau)","status":"laufend","types":"","url":"http://www.kompaxx.de/index.php?id=62","":"","id":"","tags":[]},"geometry":{"type":"Point","coordinates":[13.2093436,52.5616836]}},{"type":"Feature","properties":{"name":"Familiengarten Kotti","address":"Oranienstr. 34","postcode":"10999","city":"Berlin","hint":"Hinterhof","ID_Map":"15","bezirk":"Spandau","bezirk_id":"3","lfdnr":"78","label_placement":"2","diff":"1.0,-4.0","comment":"","contact":"Tel.: 030/ 614 3556 e-mail: kotti.neriman-kurt@online.de, Neriman Kurt","intern comment":"","status":"Laufend","types":"","url":"http://www.kotti-berlin.de/index.php/familiengarten","":"","id":"73","tags":[]},"geometry":{"type":"Point","coordinates":[13.2093436,52.5616836]}},{"type":"Feature","properties":{"name":"FrobenGarten","address":"Frobenstr. 17","postcode":"10783","city":"Berlin","hint":"","ID_Map":"16","bezirk":"Spandau","bezirk_id":"4","lfdnr":"79","label_placement":"0","diff":"-4.0,0.0","comment":"","contact":"Gruppe F Bettina Walther walther@gruppef.com","intern comment":"","status":"laufend","types":"","url":"http://schoeneberger-norden.de/FrobenGarten-Aufruf-zum-Mitmachen.4829.0.html","":"","id":"","tags":[]},"geometry":{"type":"Point","coordinates":[13.1953538,52.5465481]}},{"type":"Feature","properties":{"name":"Grüne Blase","address":"Blasewitzer Ring 28-34","postcode":"13593","city":"Berlin","hint":"","ID_Map":"25","bezirk":"Spandau","bezirk_id":"5","lfdnr":"80","label_placement":"2","diff":"1.0,-4.0","comment":"","contact":"walther@gruppef.com, marie.gurke@web.de","intern comment":"","status":"laufend","types":"","url":"","":"","id":"","tags":[]},"geometry":{"type":"Point","coordinates":[13.1756209,52.520519]}},{"type":"Feature","properties":{"name":"Gemeinschaftsgarten an Offenen Familienwohnung von Casablanca","address":"Kraepelinweg 17","postcode":"13589","city":"Berlin","hint":"","ID_Map":"26","bezirk":"Spandau","bezirk_id":"6","lfdnr":"81","label_placement":"2","diff":"1.0,-4.0","comment":"","contact":"Dörthe Kreckel      Tel: 37151520    dkreckel@g-casablanca.de","intern comment":"Über Agnes (Spandau)    seit 2017","status":"laufend","types":"","url":"","":"","id":"","tags":[]},"geometry":{"type":"Point","coordinates":[13.151187,52.5545982]}},{"type":"Feature","properties":{"name":"Interkultureller Garten des SOS Kinderdorf","address":"Gatower Str. 199","postcode":"13595","city":"Berlin","hint":"","ID_Map":"49","bezirk":"Spandau","bezirk_id":"7","lfdnr":"82","label_placement":"5","diff":"1.0,-2.0","comment":"","contact":"Jennifer Linn Schreiter    Telefon 030 3699698-0, jennifer-linn.schreiter@sos-kinderdorf.de","intern comment":"Über Agnes (Spandau)    seit 2016","status":"laufend","types":"","url":"http://www.sos-kinderdorf.de/kinderdorf-berlin/angebot-berlin/interkultureller-garten","":"","id":"","tags":[]},"geometry":{"type":"Point","coordinates":[13.179534,52.501455]}},{"type":"Feature","properties":{"name":"Interkultureller Gemeinschaftsgarten an der Jeremia-Kirche","address":"Burbacher Weg 3","postcode":"13583","city":"Berlin","hint":"","ID_Map":"51","bezirk":"Spandau","bezirk_id":"8","lfdnr":"83","label_placement":"5","diff":"1.0,-4.0","comment":"                                PDF: http://www.stadtentwicklung.berlin.de/staedtebau/foerderprogramme/stadtumbau/Gemeinschaftsgarten-an-der-Jeremia-Kirche-P.1627.2.html                                                                   https://anstiftung.de/selbermachen?catid=0&id=93","contact":"Fr. Schönecke: 372 62 35           Hr. Fleischhauer: michaelfly@web.de","intern comment":"Über Agnes (Spandau)    Gründungsjahr 2006!","status":"laufend","types":"","url":"http://www.stadtentwicklung.berlin.de/staedtebau/foerderprogramme/stadtumbau/Gemeinschaftsgarten-an-der-Jeremia-Kirche-P.1627.0.html","":"","id":"","tags":[]},"geometry":{"type":"Point","coordinates":[13.178989,52.547416]}},{"type":"Feature","properties":{"name":"Interkultureller Gemeinschaftsgarten der Zufluchtgemeinde Falkenhagener Feld Ost","address":"Westerwaldstr. 16","postcode":"13589","city":"Berlin","hint":"","ID_Map":"52","bezirk":"Spandau","bezirk_id":"9","lfdnr":"84","label_placement":"0","diff":"-6.0,-6.0","comment":"","contact":"Fr. Clausen: 3722523","intern comment":"Über Agnes (Spandau)","status":"laufend","types":"","url":"http://www.zuflucht-gemeinde.de/interkulturelles/","":"","id":"","tags":[]},"geometry":{"type":"Point","coordinates":[13.17857,52.550566]}},{"type":"Feature","properties":{"name":"Interkultureller Gemeinschaftsgarten Gatow","address":"Gatower Str. 199","postcode":"13595","city":"Berlin","hint":"","ID_Map":"54","bezirk":"Spandau","bezirk_id":"10","lfdnr":"85","label_placement":"2","diff":"1.0,-4.0","comment":"","contact":"Jennifer-Linn.Schreiter@sos-kinderdorf.de, 3699698-0 SOS Kinderdorf;","intern comment":"","status":"laufend","types":"","url":"http://www.sos-kinderdorf.de/kinderdorf-berlin/angebot-berlin/interkultureller-garten","":"","id":"","tags":[]},"geometry":{"type":"Point","coordinates":[13.17947,52.501455]}},{"type":"Feature","properties":{"name":"Neustadtoasen Mittelstraße","address":"Mittelstr. 20","postcode":"13585","city":"Berlin","hint":"","ID_Map":"83","bezirk":"Spandau","bezirk_id":"11","lfdnr":"86","label_placement":"2","diff":"1.0,-4.0","comment":"","contact":"jeanine.fornacon@googlemail.com","intern comment":"","status":"Laufend","types":"","url":"http://neustadtoasen.de/standorte/","":"","id":"372","tags":[]},"geometry":{"type":"Point","coordinates":[13.1990203943039,52.547529288094]}},{"type":"Feature","properties":{"name":"Solidarischer Garten der Jugendtheaterwerkstatt","address":"Gelsenkircher Str. 20","postcode":"13583","city":"Berlin","hint":"","ID_Map":"96","bezirk":"Spandau","bezirk_id":"12","lfdnr":"87","label_placement":"0","diff":"-4.0,0.0","comment":"","contact":"Kristaina Bauer. kristina@jtw-spandau.de Agnes Duda: 0179 340 12 45, agneskjd@web.de","intern comment":"Über Agnes (Spandau)","status":"laufend","types":"","url":"","":"","id":"","tags":[]},"geometry":{"type":"Point","coordinates":[13.174502,52.545064]}},{"type":"Feature","properties":{"name":"Willkommen-Kultur-Garten am Refugium Spandau","address":"Askanierring 71","postcode":"13585","city":"Berlin","hint":"im Hof der AWO Refugium","ID_Map":"108","bezirk":"Spandau","bezirk_id":"13","lfdnr":"88","label_placement":"2","diff":"1.0,-4.0","comment":"Der Garten befindet sich im Hof!","contact":"Gemeinschaftsgartenseite des UBB e.V.; el. 030/ 421 37 00   Mailkontakt: info@ubb.de","intern comment":"","status":"Laufend","types":"","url":"http://www.ubb.de","":"","id":"417","tags":[]},"geometry":{"type":"Point","coordinates":[13.201502,52.552355]}},{"type":"Feature","properties":{"name":"Hofgarten am Mariannenplatz","address":"Mariannenstr. 16-18","postcode":"10999","city":"Berlin","hint":"","ID_Map":"42","bezirk":"Steglitz","bezirk_id":"1","lfdnr":"89","label_placement":"2","diff":"1.0,-4.0","comment":"","contact":"030 264852613 Dewego; Annette.Biernath@degewo.de","intern comment":"über Telefonat","status":"laufend","types":"","url":"","":"","id":"","tags":[]},"geometry":{"type":"Point","coordinates":[13.33618,52.419]}},{"type":"Feature","properties":{"name":"Blohmgarten","address":"Blohmstr. 71-73","postcode":"12307","city":"Berlin","hint":"","ID_Map":"5","bezirk":"Tempelhof","bezirk_id":"1","lfdnr":"90","label_placement":"2","diff":"1.0,-4.0","comment":"","contact":"generationengarten@nusz.de, Heidi Simbritzki-Schwarz,  Tel. 75 50 31 46","intern comment":"es sind Pachtverträge mit dem Träger für je 1 jahr / Beet abzuschließen, aber mitmachen kann jeder","status":"laufend","types":"","url":"https://www.nusz.de/start/aktiv-im-stadtteil/nachbarschaftsprojekte/blohmgarten-interkultureller-generationengarten/","":"","id":"","tags":[]},"geometry":{"type":"Point","coordinates":[13.38036,52.39015]}},{"type":"Feature","properties":{"name":"Garten der Länder in Mariengrün","address":"Tirschenreuther Ring 14a","postcode":"12279","city":"Berlin","hint":"","ID_Map":"21","bezirk":"Tempelhof","bezirk_id":"2","lfdnr":"91","label_placement":"2","diff":"1.0,-4.0","comment":"","contact":"030 264852613  Dewego; Annette.Biernath@degewo.de","intern comment":"","status":"laufend","types":"","url":"","":"","id":"","tags":[]},"geometry":{"type":"Point","coordinates":[13.3458929,52.4100273]}},{"type":"Feature","properties":{"name":"Generationengarten Boseclub","address":"Bosestr. 6","postcode":"12103","city":"Berlin","hint":"","ID_Map":"35","bezirk":"Tempelhof","bezirk_id":"3","lfdnr":"92","label_placement":"2","diff":"1.0,-4.0","comment":"","contact":"","intern comment":"","status":"Laufend","types":"","url":"http://www.generationengaerten.de/index.php?option=com_content&view=article&id=13&Itemid=6","":"","id":"72","tags":[]},"geometry":{"type":"Point","coordinates":[13.3787301379593,52.4629582048925]}},{"type":"Feature","properties":{"name":"Interkultureller Generationengarten Lichtenrade – IKGG","address":"Blohmstr. 71-73","postcode":"12309","city":"Berlin","hint":"","ID_Map":"55","bezirk":"Tempelhof","bezirk_id":"4","lfdnr":"93","label_placement":"2","diff":"1.0,-4.0","comment":"","contact":"","intern comment":"","status":"Laufend","types":"","url":"https://www.nusz.de/start/aktiv-im-stadtteil/nachbarschaftsprojekte/blohmgarten-interkultureller-generationengarten/","":"","id":"39","tags":[]},"geometry":{"type":"Point","coordinates":[13.381055604477,52.3894025082596]}},{"type":"Feature","properties":{"name":"Stadtacker","address":"Tempelhofer Feld","postcode":"10965","city":"Berlin","hint":"Eingang Columbiadamm 91","ID_Map":"99","bezirk":"Tempelhof","bezirk_id":"5","lfdnr":"94","label_placement":"0","diff":"-4.0,0.0","comment":"","contact":"","intern comment":"","status":"Laufend","types":"","url":"http://stadtacker.com","":"","id":"358","tags":[]},"geometry":{"type":"Point","coordinates":[13.4024327206932,52.4814623098072]}},{"type":"Feature","properties":{"name":"Umweltgarten am Tempelhofer Feld","address":"Tempelhofer Damm 103","postcode":"12099","city":"Berlin","hint":"Im 'Gartenkolonie \"Tempelhofer Berg\" der Bahnlandwirtschaft, Bezirk Berlin","ID_Map":"105","bezirk":"Tempelhof","bezirk_id":"6","lfdnr":"95","label_placement":"2","diff":"1.0,-4.0","comment":"","contact":"","intern comment":"","status":"Laufend","types":"","url":"","":"","id":"375","tags":[]},"geometry":{"type":"Point","coordinates":[13.3860151535118,52.4707892889191]}},{"type":"Feature","properties":{"name":"Bürgergarten im Stadtgarten Moabit","address":"Siemensstr. 27","postcode":"10551","city":"Berlin","hint":"","ID_Map":"9","bezirk":"Tiergarten","bezirk_id":"1","lfdnr":"96","label_placement":"2","diff":"1.0,-4.0","comment":"","contact":"","intern comment":"","status":"Laufend","types":"","url":"http://www.stephankiez.de/cms/front_content.php","":"","id":"328","tags":[]},"geometry":{"type":"Point","coordinates":[13.3361509931847,52.5335859789991]}},{"type":"Feature","properties":{"name":"Interkultureller Garten City im Familiengarten Mitte","address":"Lützowstr. 28","postcode":"10785","city":"Berlin","hint":"","ID_Map":"47","bezirk":"Tiergarten","bezirk_id":"2","lfdnr":"97","label_placement":"2","diff":"1.0,-4.0","comment":"","contact":"Tel: (030) 25 79 78 63, E-Mail: fetibayran@gmx.de","intern comment":"","status":"","types":"","url":"","":"","id":"21","tags":[]},"geometry":{"type":"Point","coordinates":[13.363443,52.50358]}},{"type":"Feature","properties":{"name":"Interkultureller Garten Altglienicke Datscha","address":"Nelkenweg 63","postcode":"12524","city":"Berlin","hint":"Mohnweg, Ecke Nelkenweg ","ID_Map":"44","bezirk":"Treptow","bezirk_id":"1","lfdnr":"98","label_placement":"2","diff":"1.0,-4.0","comment":"","contact":"Tel.: 030 - 65 57 561","intern comment":"Rudower Straße 51, 12557 Berlin","status":"Laufend","types":"","url":"","":"","id":"10","tags":[]},"geometry":{"type":"Point","coordinates":[13.5391576322937,52.4077026636469]}},{"type":"Feature","properties":{"name":"Moros Garten","address":"Karpfenteichstr. 13","postcode":"12435","city":"Berlin","hint":"","ID_Map":"78","bezirk":"Treptow","bezirk_id":"2","lfdnr":"99","label_placement":"5","diff":"1.0,-2.0","comment":"","contact":"stephi.klose@posteo.de","intern comment":"","status":"Laufend","types":"","url":"","":"","id":"351","tags":[]},"geometry":{"type":"Point","coordinates":[13.4653979,52.4823945]}},{"type":"Feature","properties":{"name":"Multitude Garten","address":"Karpfenteichstr. 13","postcode":"12435","city":"Berlin","hint":"","ID_Map":"79","bezirk":"Treptow","bezirk_id":"3","lfdnr":"100","label_placement":"2","diff":"1.0,-4.0","comment":"","contact":"","intern comment":"","status":"","types":"","url":"","":"","id":"","tags":[]},"geometry":{"type":"Point","coordinates":[13.4653979,52.4823945]}},{"type":"Feature","properties":{"name":"Elstergarten","address":"Graunstr. 33","postcode":"13355","city":"Berlin","hint":"","ID_Map":"12","bezirk":"Wedding","bezirk_id":"1","lfdnr":"101","label_placement":"0","diff":"-4.0,0.0","comment":"","contact":"elster-garten@gmx.de","intern comment":"auch Gruppe F Frau Walther verbindet, habe nochmal angeschrieben_30.11. ; Medlung über die DEWEGO","status":"laufend","types":"","url":"http://www.brunnenviertel-brunnenstrasse.de/Nachricht.aktuell0+M53e32a08c57.0.html","":"","id":"","tags":[]},"geometry":{"type":"Point","coordinates":[13.39839,52.54509]}},{"type":"Feature","properties":{"name":"Gemeinschaftsgarten Centre Français","address":"Müllerstr. 74","postcode":"13349","city":"Berlin","hint":"","ID_Map":"28","bezirk":"Wedding","bezirk_id":"2","lfdnr":"102","label_placement":"2","diff":"1.0,-4.0","comment":"","contact":"gaerten@centre-francais.de","intern comment":"von Sonja Himmelbeet","status":"laufend","types":"","url":"http://centre-francais.de/de/der-gemeinschaftsgarten/","":"","id":"","tags":[]},"geometry":{"type":"Point","coordinates":[13.3391068,52.5583852]}},{"type":"Feature","properties":{"name":"himmelbeet","address":"Ruheplatzstr. 12","postcode":"13347","city":"Berlin","hint":"","ID_Map":"41","bezirk":"Wedding","bezirk_id":"3","lfdnr":"103","label_placement":"2","diff":"1.0,-4.0","comment":"","contact":"Tel:  +49 (0) 162 2987205 mail@himmelbeet.de","intern comment":"","status":"Laufend","types":"","url":"","":"","id":"340","tags":[]},"geometry":{"type":"Point","coordinates":[13.3501963485489,52.5518639365812]}},{"type":"Feature","properties":{"name":"Interkultureller Garten der Generationen (SUZ Mitte)","address":"Seestr. 74","postcode":"13347","city":"Berlin","hint":"","ID_Map":"48","bezirk":"Wedding","bezirk_id":"4","lfdnr":"104","label_placement":"2","diff":"1.0,-4.0","comment":"","contact":"fuhrmann@suz-mitte.de","intern comment":"","status":"Laufend","types":"","url":"http://www.suz-mitte.de","":"","id":"20","tags":[]},"geometry":{"type":"Point","coordinates":[13.3638523336601,52.5559011710599]}},{"type":"Feature","properties":{"name":"Inklusiver Kräutergarten am Dohnagestell","address":"Dohnagestell 10","postcode":"13351","city":"Berlin","hint":"","ID_Map":"68","bezirk":"Wedding","bezirk_id":"5","lfdnr":"105","label_placement":"2","diff":"1.0,-4.0","comment":"","contact":"rosenthalsonja@himmelbeet.de","intern comment":"von Sonja Himmelbeet","status":"laufend","types":"","url":"","":"","id":"","tags":[]},"geometry":{"type":"Point","coordinates":[13.33423,52.544464]}},{"type":"Feature","properties":{"name":"Mauergarten","address":"Lortzing-/Gleimstr.","postcode":"10437","city":"Berlin","hint":"bei der Max-Schmeling-Halle im Mauerpark ","ID_Map":"73","bezirk":"Wedding","bezirk_id":"6","lfdnr":"106","label_placement":"2","diff":"1.0,-4.0","comment":"Seit Juli 2013 sind wir offiziell und aktiv auf unserer Wunschfläche:  zw. Lortzing- und Gleimstraße und Max-Schmeling-Halle bzw. Mauerpark - alt.","contact":"","intern comment":"","status":"Laufend","types":"","url":"http://mauergarten.net","":"","id":"312","tags":[]},"geometry":{"type":"Point","coordinates":[13.400467,52.545184]}},{"type":"Feature","properties":{"name":"Gemeinschaftsgarten in der Buschallee","address":"Buschallee 91a-93a","postcode":"13088","city":"Berlin","hint":"","ID_Map":"27","bezirk":"Weißensee","bezirk_id":"1","lfdnr":"107","label_placement":"2","diff":"1.0,-4.0","comment":"","contact":"Ulrich Balling: 'balling@snafu.de ","intern comment":"","status":"","types":"","url":"http://www.das-leben-wagen.org/","":"","id":"","tags":[]},"geometry":{"type":"Point","coordinates":[13.4742532,52.5536847]}},{"type":"Feature","properties":{"name":"Klimagarten im Kinder- und Jugendklub Maxim","address":"Charlottenburger Str. 117","postcode":"13086","city":"Berlin","hint":"","ID_Map":"65","bezirk":"Weißensee","bezirk_id":"2","lfdnr":"108","label_placement":"2","diff":"1.0,-4.0","comment":"","contact":"Tel.: +49+30+92376457, E-Mail: info@im-maxim.de","intern comment":"","status":"Laufend","types":"","url":"http://www.im-maxim.de/","":"","id":"82","tags":[]},"geometry":{"type":"Point","coordinates":[13.44547,52.55219]}},{"type":"Feature","properties":{"name":"Offener Garten im KuBiZ","address":"Bernkasteler Str. 78","postcode":"13088","city":"Berlin","hint":"","ID_Map":"85","bezirk":"Weißensee","bezirk_id":"3","lfdnr":"109","label_placement":"2","diff":"1.0,-6.0","comment":"","contact":"","intern comment":"","status":"Laufend","types":"","url":"http://offenergarten.blogsport.de","":"","id":"34","tags":[]},"geometry":{"type":"Point","coordinates":[13.469877909787,52.5571696878302]}},{"type":"Feature","properties":{"name":"Mitmachgarten in der KGA Am Stadtpark I","address":"Waghäuseler Str. 10b","postcode":"10715","city":"Berlin","hint":"U-Bahnstationen Rathaus-Schöneberg oder Berliner Str.","ID_Map":"76","bezirk":"Wilmersdorf","bezirk_id":"1","lfdnr":"110","label_placement":"2","diff":"1.0,-4.0","comment":"","contact":"Tel. 017622568639","intern comment":"","status":"Laufend","types":"","url":"http://www.kolonie-am-stadtpark.de","":"","id":"392","tags":[]},"geometry":{"type":"Point","coordinates":[13.3336825,52.4840799]}},{"type":"Feature","properties":{"name":"Nikolsburger Platz zum Essen","address":"Nikolsburger Platz 1","postcode":"10717","city":"Berlin","hint":"","ID_Map":"84","bezirk":"Wilmersdorf","bezirk_id":"2","lfdnr":"111","label_placement":"2","diff":"1.0,-4.0","comment":"","contact":"","intern comment":"","status":"Laufend","types":"","url":"http://nikolsburgerplatzzumessen.wordpress.com","":"","id":"369","tags":[]},"geometry":{"type":"Point","coordinates":[13.3286764735412,52.4931978469919]}},{"type":"Feature","properties":{"name":"Gemeinschaftsgarten Zehlenwandler","address":"Stewardstr./Am Waldfriedhof","postcode":"14169","city":"Berlin","hint":"","ID_Map":"33","bezirk":"Zehlendorf","bezirk_id":"1","lfdnr":"112","label_placement":"2","diff":"1.0,-4.0","comment":"","contact":"zehlenwandel@gmail.com,","intern comment":"keine Rückmeldung, keine Telefonnummer, habe nochmal angeschrieben_30.11.","status":"","types":"","url":"https://zehlenwandel.wordpress.com/gemeinschaftsgarten/","":"","id":"","tags":[]},"geometry":{"type":"Point","coordinates":[13.26301,52.45241]}},{"type":"Feature","properties":{"name":"Ökogarten am Buschgraben","address":"Ludwigsfelder Str. 30","postcode":"14165","city":"Berlin","hint":"Eingang Idsteiner Weg","ID_Map":"86","bezirk":"Zehlendorf","bezirk_id":"2","lfdnr":"113","label_placement":"2","diff":"1.0,-4.0","comment":"","contact":"","intern comment":"","status":"Laufend","types":"","url":"http://www.schoenow-buschgraben.de/index.php?option=com_content&view=article&id=32&Itemid=49","":"","id":"28","tags":[]},"geometry":{"type":"Point","coordinates":[13.2446462294998,52.4231837373152]}}]}
