{"type":"FeatureCollection","features":[{"type":"Feature","properties":{"name":" Am Stadtpark I","address":"Waghäuseler Straße 13, 10715 Berlin, Germany","status":"Geplant (Fläche /Initiative existiert, Realisierung zu erwarten)","types":"","id":"392","Elementtyp":"Element","Pfad":"Lists/Projekte","tags":[]},"geometry":{"type":"Point","coordinates":[13.3336825,52.4840799]}},{"type":"Feature","properties":{"name":"\"ZusammenWachsen\" - ein Erfahrungs- und Bildungsgarten des Malteser Familienzentrums Manna","address":"Kleingartenkolonie Am Buschkrug  Parzelle 360Buschkrugallee 175  12359 BerlinU-Bahnhof Parchimer Allee","status":"Laufend","types":"Bildungs-/Lehrgarten;#22;#Generationengarten;#6","id":"382","Elementtyp":"Element","Pfad":"Lists/Projekte","tags":["Bildungs-/Lehrgarten","22","Generationengarten","6"]},"geometry":{"type":"Point","coordinates":[13.45420951,52.44829122]}},{"type":"Feature","properties":{"name":"»Garten der Sinne« im Buddhistischen Zentrum","address":"Kinzigstr. 25-29   10247 Berlin","status":"Geplant (Fläche /Initiative existiert, Realisierung zu erwarten)","types":"Religiöser Garten;#34","id":"348","Elementtyp":"Element","Pfad":"Lists/Projekte","tags":["Religiöser Garten","34"]},"geometry":{"type":"Point","coordinates":[13.46492782,52.51262245]}},{"type":"Feature","properties":{"name":"»Gartenland am Beerenpfuhl« (Grabeland)","address":"Tangermünder Strasse 26-28, 12627 Berlin","status":"Laufend","types":"Gemeinschaftsgarten (individuelle Nutzung);#4","id":"354","Elementtyp":"Element","Pfad":"Lists/Projekte","tags":["Gemeinschaftsgarten (individuelle Nutzung)","4"]},"geometry":{"type":"Point","coordinates":[13.60713633,52.54401576]}},{"type":"Feature","properties":{"name":"»Offener Garten« im KuBiz Weissensee","address":"Bernkasteler Straße 78   13088 Berlin","status":"Laufend","types":"Gemeinschaftsgarten (gemeinschaftliche Nutzung);#5","id":"34","Elementtyp":"Element","Pfad":"Lists/Projekte","tags":["Gemeinschaftsgarten (gemeinschaftliche Nutzung)","5"]},"geometry":{"type":"Point","coordinates":[13.46987791,52.55716969]}},{"type":"Feature","properties":{"name":"»Perivoli  Unser Garten« Interkultureller Garten Neukölln","address":"Koppelweg 102, \n12347 Berlin","status":"Laufend","types":"Interkultureller Garten;#8","id":"23","Elementtyp":"Element","Pfad":"Lists/Projekte","tags":["Interkultureller Garten","8"]},"geometry":{"type":"Point","coordinates":[13.416386,52.444687]}},{"type":"Feature","properties":{"name":"Bunter Garten Buchholz","address":"Aubertstraße 1,  \n13127 Berlin  Germany","status":"Laufend","types":"Interkultureller Garten;#8;#Gemeinschaftsgarten (gemeinschaftliche Nutzung);#5;#Gemeinschaftsgarten (individuelle Nutzung);#4;#\"Allmende-Obstbestände\";#28","id":"26","Elementtyp":"Element","Pfad":"Lists/Projekte","tags":["Interkultureller Garten","8","Gemeinschaftsgarten (gemeinschaftliche Nutzung)","5","Gemeinschaftsgarten (individuelle Nutzung)","4","\"Allmende-Obstbestände\"","28"]},"geometry":{"type":"Point","coordinates":[13.41663871,52.60845261]}},{"type":"Feature","properties":{"name":"Bürgergarten im Stadtgarten Moabit","address":"Siemensstraße 27,   \n10551 Berlin  MItte","status":"","types":"Gemeinschaftsgarten (gemeinschaftliche Nutzung);#5;#Interkultureller Garten;#8","id":"328","Elementtyp":"Element","Pfad":"Lists/Projekte","tags":["Gemeinschaftsgarten (gemeinschaftliche Nutzung)","5","Interkultureller Garten","8"]},"geometry":{"type":"Point","coordinates":[13.33615099,52.53358598]}},{"type":"Feature","properties":{"name":"ErlebnisGarten Mittelstraße","address":"Mittelstraße  13585 Berlin  Germany","status":"Laufend","types":"Bildungs-/Lehrgarten;#22;#Gemeinschaftsgarten (gemeinschaftliche Nutzung);#5;#Interkultureller Garten;#8","id":"372","Elementtyp":"Element","Pfad":"Lists/Projekte","tags":["Bildungs-/Lehrgarten","22","Gemeinschaftsgarten (gemeinschaftliche Nutzung)","5","Interkultureller Garten","8"]},"geometry":{"type":"Point","coordinates":[13.19902039,52.54752929]}},{"type":"Feature","properties":{"name":"Garteninitiative »Wir ernten, was wir säen«","address":"Wiecker Straße 8-10, \n13051 Berlin","status":"Laufend","types":"Interkultureller Garten;#8;#Gemeinschaftsgarten (gemeinschaftliche Nutzung);#5;#Jugend - / Kinder-Garten;#33","id":"56","Elementtyp":"Element","Pfad":"Lists/Projekte","tags":["Interkultureller Garten","8","Gemeinschaftsgarten (gemeinschaftliche Nutzung)","5","Jugend - / Kinder-Garten","33"]},"geometry":{"type":"Point","coordinates":[13.49590427,52.56863308]}},{"type":"Feature","properties":{"name":"Gartenkolonie Tempelhofer Berg","address":"Tempelhofer Damm 103 12099 Berlin ","status":"Laufend","types":"Kleingarten/Schrebergarten;#10;#Imkerei;#7","id":"375","Elementtyp":"Element","Pfad":"Lists/Projekte","tags":["Kleingarten/Schrebergarten","10","Imkerei","7"]},"geometry":{"type":"Point","coordinates":[13.38601515,52.47078929]}},{"type":"Feature","properties":{"name":"Gemeinschaftsgarten am Burbacher Weg","address":"Burbacher Weg 2, 13583 Berlin, Germany","status":"Laufend","types":"Interkultureller Garten;#8;#Gemeinschaftsgarten (gemeinschaftliche Nutzung);#5","id":"27","Elementtyp":"Element","Pfad":"Lists/Projekte","tags":["Interkultureller Garten","8","Gemeinschaftsgarten (gemeinschaftliche Nutzung)","5"]},"geometry":{"type":"Point","coordinates":[13.17839,52.54667]}},{"type":"Feature","properties":{"name":"Gemeinschaftsgarten Bürgerstrasse","address":"Bürgerstrasse 8, \n12347 Berlin","status":"Geplant (Fläche /Initiative existiert, Realisierung zu erwarten)","types":"Gemeinschaftsgarten (gemeinschaftliche Nutzung);#5;#Gemeinschaftsgarten (individuelle Nutzung);#4","id":"349","Elementtyp":"Element","Pfad":"Lists/Projekte","tags":["Gemeinschaftsgarten (gemeinschaftliche Nutzung)","5","Gemeinschaftsgarten (individuelle Nutzung)","4"]},"geometry":{"type":"Point","coordinates":[13.44383476,52.46256796]}},{"type":"Feature","properties":{"name":"Gemeinschaftsgarten G13 »Familienurwald«","address":"Glogauer Straße 13 10999 Berlin","status":"Laufend","types":"Gemeinschaftsgarten (gemeinschaftliche Nutzung);#5;#Gemeinschaftsgarten (individuelle Nutzung);#4;#Generationengarten;#6;#Interkultureller Garten;#8;#Jugend - / Kinder-Garten;#33","id":"329","Elementtyp":"Element","Pfad":"Lists/Projekte","tags":["Gemeinschaftsgarten (gemeinschaftliche Nutzung)","5","Gemeinschaftsgarten (individuelle Nutzung)","4","Generationengarten","6","Interkultureller Garten","8","Jugend - / Kinder-Garten","33"]},"geometry":{"type":"Point","coordinates":[13.43603638,52.49230933]}},{"type":"Feature","properties":{"name":"Gemeinschaftsgarten Lebens(t)raum Johannisthal","address":"WEG Am Rundling 12487 Berlin-Treptow","status":"Geplant (Fläche /Initiative existiert, Realisierung zu erwarten)","types":"Gemeinschaftsgarten (gemeinschaftliche Nutzung);#5","id":"335","Elementtyp":"Element","Pfad":"Lists/Projekte","tags":["Gemeinschaftsgarten (gemeinschaftliche Nutzung)","5"]},"geometry":{"type":"Point","coordinates":[13.5122581,52.43884]}},{"type":"Feature","properties":{"name":"Generationengarten \"AWO Begegnungszentrum\"","address":"Adalbertstrasse 23a, 10997 Berlin","status":"Laufend","types":"Generationengarten;#6;#Heilgarten;#21","id":"70","Elementtyp":"Element","Pfad":"Lists/Projekte","tags":["Generationengarten","6","Heilgarten","21"]},"geometry":{"type":"Point","coordinates":[13.42190184,52.50385918]}},{"type":"Feature","properties":{"name":"Generationengarten \"Mittelhof e.V.\"","address":"Teltower Damm 228, \n14167 Berlin","status":"Laufend","types":"Generationengarten;#6;#Heilgarten;#21","id":"74","Elementtyp":"Element","Pfad":"Lists/Projekte","tags":["Generationengarten","6","Heilgarten","21"]},"geometry":{"type":"Point","coordinates":[13.2665099,52.4133811]}},{"type":"Feature","properties":{"name":"Generationengarten \"Nachbarschaftshaus Centrum e.V.\"","address":"Cuvrystr. 13/14,  \nBerlin","status":"Laufend","types":"Generationengarten;#6;#Heilgarten;#21","id":"75","Elementtyp":"Element","Pfad":"Lists/Projekte","tags":["Generationengarten","6","Heilgarten","21"]},"geometry":{"type":"Point","coordinates":[13.44377251,52.49879021]}},{"type":"Feature","properties":{"name":"Generationengarten \"Paul Gerhardt Stift\"","address":"Müllerstrasse 56-58, \n13349 Berlin","status":"Laufend","types":"Generationengarten;#6;#Heilgarten;#21","id":"76","Elementtyp":"Element","Pfad":"Lists/Projekte","tags":["Generationengarten","6","Heilgarten","21"]},"geometry":{"type":"Point","coordinates":[13.34804361,52.55546292]}},{"type":"Feature","properties":{"name":"Generationengarten \"Pestalozzi-Treff\"","address":"Pestalozzistrasse 1a, \n12623 Berlin","status":"Laufend","types":"Generationengarten;#6;#Heilgarten;#21","id":"77","Elementtyp":"Element","Pfad":"Lists/Projekte","tags":["Generationengarten","6","Heilgarten","21"]},"geometry":{"type":"Point","coordinates":[13.61429953,52.51017596]}},{"type":"Feature","properties":{"name":"Generationengarten Begegnungsstätte Falckensteinstraße","address":"Falckensteinstr. 6, \n10997 Berlin","status":"Laufend","types":"Generationengarten;#6","id":"71","Elementtyp":"Element","Pfad":"Lists/Projekte","tags":["Generationengarten","6"]},"geometry":{"type":"Point","coordinates":[13.44256,52.49955]}},{"type":"Feature","properties":{"name":"Generationengarten Boseclub","address":"Bosestrasse 6, \n12103 Berlin","status":"Laufend","types":"Generationengarten;#6","id":"72","Elementtyp":"Element","Pfad":"Lists/Projekte","tags":["Generationengarten","6"]},"geometry":{"type":"Point","coordinates":[13.37873014,52.4629582]}},{"type":"Feature","properties":{"name":"Generationengarten Tessa e.V.","address":"Lipschitzallee, \n12353 Berlin","status":"Laufend","types":"Generationengarten;#6","id":"78","Elementtyp":"Element","Pfad":"Lists/Projekte","tags":["Generationengarten","6"]},"geometry":{"type":"Point","coordinates":[13.46686496,52.42789327]}},{"type":"Feature","properties":{"name":"Generationengarten Wrangelkiez","address":"Falckensteinstraße 6, 10997 Berlin, Germany","status":"Laufend","types":"Generationengarten;#6","id":"266","Elementtyp":"Element","Pfad":"Lists/Projekte","tags":["Generationengarten","6"]},"geometry":{"type":"Point","coordinates":[13.44256,52.49955]}},{"type":"Feature","properties":{"name":"Grabelandparzellen Oberweißbacher Straße","address":"Oberweißbacher Straße 12/14, \n12687 Berlin","status":"Laufend","types":"Mietergemeinschaftsgarten;#24;#Kleingarten/Schrebergarten;#10","id":"69","Elementtyp":"Element","Pfad":"Lists/Projekte","tags":["Mietergemeinschaftsgarten","24","Kleingarten/Schrebergarten","10"]},"geometry":{"type":"Point","coordinates":[13.57316379,52.55739643]}},{"type":"Feature","properties":{"name":"Himmelbeet  Interkultureller Gemeinschaftsgarten","address":"himmelbeet Garten\nRuheplatzstraße 12\n13347 Berlin Wedding\n(Nähe Leopoldplatz)\n\n","status":"Laufend","types":"Gemeinschaftsgarten (gemeinschaftliche Nutzung);#5;#Gemeinschaftsgarten (individuelle Nutzung);#4;#Interkultureller Garten;#8;#Dachgarten/-farm;#2","id":"340","Elementtyp":"Element","Pfad":"Lists/Projekte","tags":["Gemeinschaftsgarten (gemeinschaftliche Nutzung)","5","Gemeinschaftsgarten (individuelle Nutzung)","4","Interkultureller Garten","8","Dachgarten/-farm","2"]},"geometry":{"type":"Point","coordinates":[13.35019635,52.55186394]}},{"type":"Feature","properties":{"name":"IKG NaturFreundehaus Hermsdorfer Fließtal ","address":"Seebadstraße 27, \n13467 Berlin","status":"Abgebrochen","types":"Interkultureller Garten;#8","id":"67","Elementtyp":"Element","Pfad":"Lists/Projekte","tags":["Interkultureller Garten","8"]},"geometry":{"type":"Point","coordinates":[13.32556548,52.61851417]}},{"type":"Feature","properties":{"name":"Interkulturelle Garten-AG","address":"Familienzentrum MehringdammMehringdamm 11410965 Berlin","status":"Laufend","types":"Interkultureller Garten;#8","id":"337","Elementtyp":"Element","Pfad":"Lists/Projekte","tags":["Interkultureller Garten","8"]},"geometry":{"type":"Point","coordinates":[13.38522315,52.48666583]}},{"type":"Feature","properties":{"name":"Interkulturelle NaturWerkStadt","address":"Urbanstrasse 44 (Dachimkerei und Dachgarten, Büro)\nHasenheide 44 (Obst- und Gemüsegarten)\n10967 Berlin\n\n\n","status":"Laufend","types":"Imkerei;#7;#Jugend - / Kinder-Garten;#33","id":"58","Elementtyp":"Element","Pfad":"Lists/Projekte","tags":["Imkerei","7","Jugend - / Kinder-Garten","33"]},"geometry":{"type":"Point","coordinates":[13.41702755,52.49014924]}},{"type":"Feature","properties":{"name":"Interkultureller Bio-Garten","address":"Prinzenstr. 1   10969 Berlin","status":"Abgeschlossen","types":"Interkultureller Garten;#8","id":"268","Elementtyp":"Element","Pfad":"Lists/Projekte","tags":["Interkultureller Garten","8"]},"geometry":{"type":"Point","coordinates":[13.40772156,52.49710377]}},{"type":"Feature","properties":{"name":"Interkultureller Garten »Rosenduft« ","address":"Möckernstraße 105, \n10963 Berlin","status":"Laufend","types":"Interkultureller Garten;#8","id":"17","Elementtyp":"Element","Pfad":"Lists/Projekte","tags":["Interkultureller Garten","8"]},"geometry":{"type":"Point","coordinates":[13.37859379,52.49491501]}},{"type":"Feature","properties":{"name":"Interkultureller Garten Altglienicke »Datscha«","address":"Anne-Frank Straße  12524 Berlin","status":"Laufend","types":"Interkultureller Garten;#8","id":"10","Elementtyp":"Element","Pfad":"Lists/Projekte","tags":["Interkultureller Garten","8"]},"geometry":{"type":"Point","coordinates":[13.53915763,52.40770266]}},{"type":"Feature","properties":{"name":"Interkultureller Garten auf dem Kinderbauernhof im Görlitzer Park","address":"Wiener Strasse 59b, \n10999 Berlin\n","status":"Laufend","types":"Interkultureller Garten;#8","id":"15","Elementtyp":"Element","Pfad":"Lists/Projekte","tags":["Interkultureller Garten","8"]},"geometry":{"type":"Point","coordinates":[13.4378234,52.4957523]}},{"type":"Feature","properties":{"name":"Interkultureller Garten Berlin-Lichtenberg","address":"Liebenwalder Straße 12-18, \n13055 Berlin","status":"Laufend","types":"Interkultureller Garten;#8;#Imkerei;#7;#Weinbau;#27;#Jugend - / Kinder-Garten;#33","id":"18","Elementtyp":"Element","Pfad":"Lists/Projekte","tags":["Interkultureller Garten","8","Imkerei","7","Weinbau","27","Jugend - / Kinder-Garten","33"]},"geometry":{"type":"Point","coordinates":[13.5010002,52.5364398]}},{"type":"Feature","properties":{"name":"Interkultureller Garten City im Familiengarten Mitte","address":"Kluckstraße 11  10785 Berlin","status":"Laufend","types":"Interkultureller Garten;#8;#Gemeinschaftsgarten (individuelle Nutzung);#4","id":"21","Elementtyp":"Element","Pfad":"Lists/Projekte","tags":["Interkultureller Garten","8","Gemeinschaftsgarten (individuelle Nutzung)","4"]},"geometry":{"type":"Point","coordinates":[13.362817,52.50410744]}},{"type":"Feature","properties":{"name":"Interkultureller Garten der Generationen (SUZ Mitte)","address":"Seestrasse 74, \n13347 Berlin","status":"Laufend","types":"Interkultureller Garten;#8;#Generationengarten;#6","id":"20","Elementtyp":"Element","Pfad":"Lists/Projekte","tags":["Interkultureller Garten","8","Generationengarten","6"]},"geometry":{"type":"Point","coordinates":[13.36385233,52.55590117]}},{"type":"Feature","properties":{"name":"Interkultureller Garten der Künste im Pallaspark Schöneberg","address":"Pallasstr. 7, \n10781 Berlin","status":"Laufend","types":"Gemeinschaftsgarten (individuelle Nutzung);#4","id":"64","Elementtyp":"Element","Pfad":"Lists/Projekte","tags":["Gemeinschaftsgarten (individuelle Nutzung)","4"]},"geometry":{"type":"Point","coordinates":[13.35840588,52.49472844]}},{"type":"Feature","properties":{"name":"Interkultureller Garten Marzahn","address":"Golliner Straße 8-10, \n12689 Berlin","status":"Laufend","types":"Interkultureller Garten;#8","id":"19","Elementtyp":"Element","Pfad":"Lists/Projekte","tags":["Interkultureller Garten","8"]},"geometry":{"type":"Point","coordinates":[13.58096822,52.5681139]}},{"type":"Feature","properties":{"name":"Interkultureller Garten Mitte Museum am Gesundbrunnen","address":"Pankstraße 47, \n13357 Berlin","status":"Abgebrochen","types":"Gemeinschaftsgarten (gemeinschaftliche Nutzung);#5;#Interkultureller Garten;#8","id":"37","Elementtyp":"Element","Pfad":"Lists/Projekte","tags":["Gemeinschaftsgarten (gemeinschaftliche Nutzung)","5","Interkultureller Garten","8"]},"geometry":{"type":"Point","coordinates":[13.38026005,52.55116716]}},{"type":"Feature","properties":{"name":"Interkultureller Generationengarten Lichtenrade  IKGG","address":"Blohmstraße 71 - 73, \n12309 Berlin","status":"Laufend","types":"Interkultureller Garten;#8;#Generationengarten;#6","id":"39","Elementtyp":"Element","Pfad":"Lists/Projekte","tags":["Interkultureller Garten","8","Generationengarten","6"]},"geometry":{"type":"Point","coordinates":[13.3810556,52.38940251]}},{"type":"Feature","properties":{"name":"Interkultureller Heilgarten (bzfo)","address":"Turmstraße 21, \n10559 Berlin","status":"Laufend","types":"Interkultureller Garten;#8;#Heilgarten;#21","id":"22","Elementtyp":"Element","Pfad":"Lists/Projekte","tags":["Interkultureller Garten","8","Heilgarten","21"]},"geometry":{"type":"Point","coordinates":[13.34633923,52.52692853]}},{"type":"Feature","properties":{"name":"Interkultureller Kiez-Garten","address":"Friedrichstr. 2, \n10969 Berlin","status":"Laufend","types":"Gemeinschaftsgarten (gemeinschaftliche Nutzung);#5;#Interkultureller Garten;#8","id":"338","Elementtyp":"Element","Pfad":"Lists/Projekte","tags":["Gemeinschaftsgarten (gemeinschaftliche Nutzung)","5","Interkultureller Garten","8"]},"geometry":{"type":"Point","coordinates":[13.39177777,52.49993692]}},{"type":"Feature","properties":{"name":"Interkultureller Nachbarschaftsgarten","address":"Senftenberger Ring 45  13435 Berlin","status":"Laufend","types":"Gemeinschaftsgarten (gemeinschaftliche Nutzung);#5;#Interkultureller Garten;#8","id":"327","Elementtyp":"Element","Pfad":"Lists/Projekte","tags":["Gemeinschaftsgarten (gemeinschaftliche Nutzung)","5","Interkultureller Garten","8"]},"geometry":{"type":"Point","coordinates":[13.36120159,52.6053446]}},{"type":"Feature","properties":{"name":"Interkultureller Schulgarten Oberschöneweide","address":"Kottmeierstraße 2, \n12459 Berlin","status":"Laufend","types":"Interkultureller Garten;#8;#Schulgarten (allg. Schulbildung);#16","id":"25","Elementtyp":"Element","Pfad":"Lists/Projekte","tags":["Interkultureller Garten","8","Schulgarten (allg. Schulbildung)","16"]},"geometry":{"type":"Point","coordinates":[13.52438848,52.46268307]}},{"type":"Feature","properties":{"name":"Interkultureller Seniorengarten im MehrGenerationenHaus","address":"Wassertorstrasse 48, \n10969 Berlin","status":"Abgebrochen","types":"Interkultureller Garten;#8;#Seniorengarten;#20","id":"62","Elementtyp":"Element","Pfad":"Lists/Projekte","tags":["Interkultureller Garten","8","Seniorengarten","20"]},"geometry":{"type":"Point","coordinates":[13.40546151,52.5002813]}},{"type":"Feature","properties":{"name":"Jugendfarm Moritzhof","address":"Schwedter Straße 90, 10437 Berlin, Germany","status":"Laufend","types":"Kinderbauernhof;#9","id":"49","Elementtyp":"Element","Pfad":"Lists/Projekte","tags":["Kinderbauernhof","9"]},"geometry":{"type":"Point","coordinates":[13.4003735,52.548296]}},{"type":"Feature","properties":{"name":"Kids' Garden","address":"Friedelstraße 39,  \n12047 Berlin","status":"Laufend","types":"Gemeinschaftsgarten (gemeinschaftliche Nutzung);#5","id":"33","Elementtyp":"Element","Pfad":"Lists/Projekte","tags":["Gemeinschaftsgarten (gemeinschaftliche Nutzung)","5"]},"geometry":{"type":"Point","coordinates":[13.42679851,52.49201257]}},{"type":"Feature","properties":{"name":"Kietz-Garten Köllnische Vorstadt","address":"Rudower Straße 51, \n12557 Berlin","status":"Laufend","types":"Gemeinschaftsgarten (gemeinschaftliche Nutzung);#5","id":"41","Elementtyp":"Element","Pfad":"Lists/Projekte","tags":["Gemeinschaftsgarten (gemeinschaftliche Nutzung)","5"]},"geometry":{"type":"Point","coordinates":[13.46038627,52.43973652]}},{"type":"Feature","properties":{"name":"Kiezgarten Heinrichtreff","address":"Heinrichstraße 32, \n10317 Berlin","status":"Laufend","types":"Gemeinschaftsgarten (gemeinschaftliche Nutzung);#5","id":"52","Elementtyp":"Element","Pfad":"Lists/Projekte","tags":["Gemeinschaftsgarten (gemeinschaftliche Nutzung)","5"]},"geometry":{"type":"Point","coordinates":[13.50013,52.50623]}},{"type":"Feature","properties":{"name":"Kiezgarten Rummelsburg","address":"Fischerstr. 61\nD-10317 Berlin","status":"Laufend","types":"Gemeinschaftsgarten (gemeinschaftliche Nutzung);#5;#Imkerei;#7;#Interkultureller Garten;#8","id":"377","Elementtyp":"Element","Pfad":"Lists/Projekte","tags":["Gemeinschaftsgarten (gemeinschaftliche Nutzung)","5","Imkerei","7","Interkultureller Garten","8"]},"geometry":{"type":"Point","coordinates":[13.49371485,52.49590422]}},{"type":"Feature","properties":{"name":"Kiezgarten Schliemannstrasse","address":"Schliemannstrasse 8, \n10437 Berlin","status":"Laufend","types":"Gemeinschaftsgarten (gemeinschaftliche Nutzung);#5","id":"35","Elementtyp":"Element","Pfad":"Lists/Projekte","tags":["Gemeinschaftsgarten (gemeinschaftliche Nutzung)","5"]},"geometry":{"type":"Point","coordinates":[13.41814252,52.54189835]}},{"type":"Feature","properties":{"name":"Kiezinseln Schöneberg ","address":"Cherusker Straße 23a, \n10829 Berlin","status":"Laufend","types":"Gemeinschaftsgarten (gemeinschaftliche Nutzung);#5","id":"68","Elementtyp":"Element","Pfad":"Lists/Projekte","tags":["Gemeinschaftsgarten (gemeinschaftliche Nutzung)","5"]},"geometry":{"type":"Point","coordinates":[13.35861,52.48118]}},{"type":"Feature","properties":{"name":"Kleingartenkolonie Potsdamer Güterbahnhof    POG","address":"Bülowstraße 68","status":"Laufend","types":"Gemeinschaftsgarten (individuelle Nutzung);#4;#Kleingarten/Schrebergarten;#10;#Interkultureller Garten;#8","id":"326","Elementtyp":"Element","Pfad":"Lists/Projekte","tags":["Gemeinschaftsgarten (individuelle Nutzung)","4","Kleingarten/Schrebergarten","10","Interkultureller Garten","8"]},"geometry":{"type":"Point","coordinates":[13.36874912,52.4966759]}},{"type":"Feature","properties":{"name":"Klima-Garten im Kinder- und Jugendklub Maxim","address":"Charlottenburgerstr.117,\n13086 Berlin\n","status":"Laufend","types":"Bildungs-/Lehrgarten;#22;#Gemeinschaftsgarten (gemeinschaftliche Nutzung);#5","id":"82","Elementtyp":"Element","Pfad":"Lists/Projekte","tags":["Bildungs-/Lehrgarten","22","Gemeinschaftsgarten (gemeinschaftliche Nutzung)","5"]},"geometry":{"type":"Point","coordinates":[13.44547,52.55219]}},{"type":"Feature","properties":{"name":"Krausnickpark","address":"Oranienburger Strasse 20 10178 Berlin","status":"","types":"Gemeinschaftsgarten (gemeinschaftliche Nutzung);#5","id":"346","Elementtyp":"Element","Pfad":"Lists/Projekte","tags":["Gemeinschaftsgarten (gemeinschaftliche Nutzung)","5"]},"geometry":{"type":"Point","coordinates":[13.39667292,52.52431608]}},{"type":"Feature","properties":{"name":"Krummer Garten Charlottenburg","address":"Krumme Straße  10585 Berlin","status":"Laufend","types":"Gemeinschaftsgarten (gemeinschaftliche Nutzung);#5","id":"63","Elementtyp":"Element","Pfad":"Lists/Projekte","tags":["Gemeinschaftsgarten (gemeinschaftliche Nutzung)","5"]},"geometry":{"type":"Point","coordinates":[13.30869894,52.5152347]}},{"type":"Feature","properties":{"name":"Lern- und Nachbarschaftsgarten Kottbusser Damm","address":"Kottbusser Damm 80a,\n10967 Berlin","status":"Laufend","types":"Gemeinschaftsgarten (gemeinschaftliche Nutzung);#5","id":"61","Elementtyp":"Element","Pfad":"Lists/Projekte","tags":["Gemeinschaftsgarten (gemeinschaftliche Nutzung)","5"]},"geometry":{"type":"Point","coordinates":[13.42407857,52.49175502]}},{"type":"Feature","properties":{"name":"Lichtenberger Stadtgarten","address":"Allee der Kosmonauten 23a, \n10315 Berlin","status":"Laufend","types":"Gemeinschaftsgarten (gemeinschaftliche Nutzung);#5","id":"48","Elementtyp":"Element","Pfad":"Lists/Projekte","tags":["Gemeinschaftsgarten (gemeinschaftliche Nutzung)","5"]},"geometry":{"type":"Point","coordinates":[13.51308325,52.52611458]}},{"type":"Feature","properties":{"name":"Märkisches Grünland","address":"Golliner Straße, \n12689 Berlin","status":"Abgebrochen","types":"Gemeinschaftsgarten (gemeinschaftliche Nutzung);#5","id":"32","Elementtyp":"Element","Pfad":"Lists/Projekte","tags":["Gemeinschaftsgarten (gemeinschaftliche Nutzung)","5"]},"geometry":{"type":"Point","coordinates":[13.58123096,52.56843295]}},{"type":"Feature","properties":{"name":"mauergarten","address":"zw. Lortzing- und Gleimstraße und Max-Schmeling-Halle bzw. Mauerpark - alt. ","status":"Laufend","types":"Gemeinschaftsgarten (gemeinschaftliche Nutzung);#5;#Generationengarten;#6;#Interkultureller Garten;#8;#Jugend - / Kinder-Garten;#33","id":"312","Elementtyp":"Element","Pfad":"Lists/Projekte","tags":["Gemeinschaftsgarten (gemeinschaftliche Nutzung)","5","Generationengarten","6","Interkultureller Garten","8","Jugend - / Kinder-Garten","33"]},"geometry":{"type":"Point","coordinates":[13.40012895,52.54563545]}},{"type":"Feature","properties":{"name":"meine ernte - Gartenbaubetrieb Vogel","address":"Grüne Trift, \n13059 Berlin-Wartenberg","status":"Laufend","types":"Selbst-Ernte-/Krautgarten;#12","id":"50","Elementtyp":"Element","Pfad":"Lists/Projekte","tags":["Selbst-Ernte-/Krautgarten","12"]},"geometry":{"type":"Point","coordinates":[13.526995,52.577766]}},{"type":"Feature","properties":{"name":"meine ernte - Hof Lutz Gericke","address":"Klein-Ziethener-Weg 17, 12355 Berlin-Rudow","status":"Laufend","types":"Selbst-Ernte-/Krautgarten;#12","id":"51","Elementtyp":"Element","Pfad":"Lists/Projekte","tags":["Selbst-Ernte-/Krautgarten","12"]},"geometry":{"type":"Point","coordinates":[13.47684592,52.40056601]}},{"type":"Feature","properties":{"name":"MenschenskinderGarten","address":"Fürstenwalder Straße 30,\n10243 Berlin","status":"Laufend","types":"Interkultureller Garten;#8;#Gemeinschaftsgarten (individuelle Nutzung);#4;#Heilgarten;#21;#Jugend - / Kinder-Garten;#33;#Bildungs-/Lehrgarten;#22;#Schaugarten;#35;#Selbst-Ernte-/Krautgarten;#12;#Fühlgarten;#32","id":"332","Elementtyp":"Element","Pfad":"Lists/Projekte","tags":["Interkultureller Garten","8","Gemeinschaftsgarten (individuelle Nutzung)","4","Heilgarten","21","Jugend - / Kinder-Garten","33","Bildungs-/Lehrgarten","22","Schaugarten","35","Selbst-Ernte-/Krautgarten","12","Fühlgarten","32"]},"geometry":{"type":"Point","coordinates":[13.43115711,52.51994429]}},{"type":"Feature","properties":{"name":"Mietergarten am Auerbacher Ring","address":"Auerbacher Ring, \n12619 Berlin","status":"Laufend","types":"Kleingarten/Schrebergarten;#10","id":"55","Elementtyp":"Element","Pfad":"Lists/Projekte","tags":["Kleingarten/Schrebergarten","10"]},"geometry":{"type":"Point","coordinates":[13.60071707,52.53305804]}},{"type":"Feature","properties":{"name":"Mietergarten Swinemünder Strasse 26","address":"Swinemünder Strasse  26,  \n13355 Berlin","status":"Laufend","types":"Mietergemeinschaftsgarten;#24","id":"345","Elementtyp":"Element","Pfad":"Lists/Projekte","tags":["Mietergemeinschaftsgarten","24"]},"geometry":{"type":"Point","coordinates":[13.40048463,52.54016739]}},{"type":"Feature","properties":{"name":"Mörchenpark","address":"Holzmarktstraße 30, 10243 Berlin, Germany","status":"Genehmigt, noch nicht begonnen","types":"","id":"322","Elementtyp":"Element","Pfad":"Lists/Projekte","tags":[]},"geometry":{"type":"Point","coordinates":[13.4277273,52.5112641]}},{"type":"Feature","properties":{"name":"Nachbarschaftsgarten »Gropiusstadt  wie gewohnt?«","address":"Lipschitzallee 36  12353 Berlin","status":"Geplant (Fläche /Initiative existiert, Realisierung zu erwarten)","types":"Dachgarten/-farm;#2;#Gemeinschaftsgarten (gemeinschaftliche Nutzung);#5","id":"350","Elementtyp":"Element","Pfad":"Lists/Projekte","tags":["Dachgarten/-farm","2","Gemeinschaftsgarten (gemeinschaftliche Nutzung)","5"]},"geometry":{"type":"Point","coordinates":[13.46748187,52.4278671]}},{"type":"Feature","properties":{"name":"Nachbarschaftsgarten Rosa Rose","address":"Jessnerstrasse 3 10247 Berlin","status":"Laufend","types":"Gemeinschaftsgarten (gemeinschaftliche Nutzung);#5;#Interkultureller Garten;#8","id":"7","Elementtyp":"Element","Pfad":"Lists/Projekte","tags":["Gemeinschaftsgarten (gemeinschaftliche Nutzung)","5","Interkultureller Garten","8"]},"geometry":{"type":"Point","coordinates":[13.47423471,52.51328593]}},{"type":"Feature","properties":{"name":"Nikolsburger Platz zum Essen","address":"Nikolsburger Platz 1  10717 Berlin","status":"Laufend","types":"Gemeinschaftsgarten (gemeinschaftliche Nutzung);#5;#Guerilla Gardening;#29","id":"369","Elementtyp":"Element","Pfad":"Lists/Projekte","tags":["Gemeinschaftsgarten (gemeinschaftliche Nutzung)","5","Guerilla Gardening","29"]},"geometry":{"type":"Point","coordinates":[13.32867647,52.49319785]}},{"type":"Feature","properties":{"name":"Öko Gut Buch","address":"Alt-Buch 51  13125 Berlin","status":"Laufend","types":"Heilgarten;#21;#Schulgarten (allg. Schulbildung);#16;#Stadt-Farm/Bauernhof;#14","id":"359","Elementtyp":"Element","Pfad":"Lists/Projekte","tags":["Heilgarten","21","Schulgarten (allg. Schulbildung)","16","Stadt-Farm/Bauernhof","14"]},"geometry":{"type":"Point","coordinates":[13.49980902,52.63579956]}},{"type":"Feature","properties":{"name":"Ökogarten am Buschgraben  ein Garten für alle!","address":"Ludwigsfelder Straße 30,\n14165 Berlin","status":"Laufend","types":"Interkultureller Garten;#8;#Gemeinschaftsgarten (gemeinschaftliche Nutzung);#5","id":"28","Elementtyp":"Element","Pfad":"Lists/Projekte","tags":["Interkultureller Garten","8","Gemeinschaftsgarten (gemeinschaftliche Nutzung)","5"]},"geometry":{"type":"Point","coordinates":[13.24464623,52.42318374]}},{"type":"Feature","properties":{"name":"Permakultur Datsche","address":"Kleingartenkolonie \"Am Braunschweiger Ufer\",\nBritzer Damm 54b, \n12347 Berlin-Britz","status":"Laufend","types":"Gemeinschaftsgarten (gemeinschaftliche Nutzung);#5;#Bildungs-/Lehrgarten;#22;#Interkultureller Garten;#8;#Kleingarten/Schrebergarten;#10","id":"357","Elementtyp":"Element","Pfad":"Lists/Projekte","tags":["Gemeinschaftsgarten (gemeinschaftliche Nutzung)","5","Bildungs-/Lehrgarten","22","Interkultureller Garten","8","Kleingarten/Schrebergarten","10"]},"geometry":{"type":"Point","coordinates":[13.43501368,52.4574531]}},{"type":"Feature","properties":{"name":"Permakulturgarten Wagendorf Karow","address":"Pankgrafenstrasse 12d  13125 Berlin  Germany","status":"Laufend","types":"Gemeinschaftsgarten (gemeinschaftliche Nutzung);#5","id":"53","Elementtyp":"Element","Pfad":"Lists/Projekte","tags":["Gemeinschaftsgarten (gemeinschaftliche Nutzung)","5"]},"geometry":{"type":"Point","coordinates":[13.45243711,52.61577847]}},{"type":"Feature","properties":{"name":"Prachttomate Garten","address":"Prachttomate Garten, \nBornsdorerstraße 9-11,  \n12053 Berlin","status":"in Veränderung","types":"Gemeinschaftsgarten (gemeinschaftliche Nutzung);#5","id":"343","Elementtyp":"Element","Pfad":"Lists/Projekte","tags":["Gemeinschaftsgarten (gemeinschaftliche Nutzung)","5"]},"geometry":{"type":"Point","coordinates":[13.43700382,52.47702139]}},{"type":"Feature","properties":{"name":"Prinzessinnengarten","address":"Prinzenstraße 35-38,\n10969 Berlin","status":"Laufend","types":"Interkultureller Garten;#8","id":"9","Elementtyp":"Element","Pfad":"Lists/Projekte","tags":["Interkultureller Garten","8"]},"geometry":{"type":"Point","coordinates":[13.41121253,52.50303468]}},{"type":"Feature","properties":{"name":"Pyramidengarten","address":"Columbiadamm 120 10965 Berlin","status":"Laufend","types":"Interkultureller Garten;#8","id":"6","Elementtyp":"Element","Pfad":"Lists/Projekte","tags":["Interkultureller Garten","8"]},"geometry":{"type":"Point","coordinates":[13.40821043,52.48204997]}},{"type":"Feature","properties":{"name":"Quartiersgarten Havelspitze in der Spandauer Wasserstadt","address":"Rauchstraße, \n13587 Berlin","status":"Abgebrochen","types":"Mietergemeinschaftsgarten;#24","id":"65","Elementtyp":"Element","Pfad":"Lists/Projekte","tags":["Mietergemeinschaftsgarten","24"]},"geometry":{"type":"Point","coordinates":[13.22100026,52.56049681]}},{"type":"Feature","properties":{"name":"RHIZOM   Antirasistische Garteninitiative","address":"Karpfenteichstraße 13, 12435 Berlin, Germany","status":"Geplant (Fläche /Initiative existiert, Realisierung zu erwarten)","types":"Gemeinschaftsgarten (gemeinschaftliche Nutzung);#5","id":"351","Elementtyp":"Element","Pfad":"Lists/Projekte","tags":["Gemeinschaftsgarten (gemeinschaftliche Nutzung)","5"]},"geometry":{"type":"Point","coordinates":[13.4653979,52.4823945]}},{"type":"Feature","properties":{"name":"Rübezahl  Gemeinschaftsgarten ","address":"Oderstrasse, \n12049 Berlin","status":"Laufend","types":"Gemeinschaftsgarten (gemeinschaftliche Nutzung);#5","id":"38","Elementtyp":"Element","Pfad":"Lists/Projekte","tags":["Gemeinschaftsgarten (gemeinschaftliche Nutzung)","5"]},"geometry":{"type":"Point","coordinates":[13.4182963,52.47076828]}},{"type":"Feature","properties":{"name":"Spiel/Feld Marzahn","address":"Mühlenbecker Weg  12679 Berlin","status":"Laufend","types":"Gemeinschaftsgarten (gemeinschaftliche Nutzung);#5;#Gemeinschaftsgarten (individuelle Nutzung);#4;#Schulgarten (allg. Schulbildung);#16","id":"361","Elementtyp":"Element","Pfad":"Lists/Projekte","tags":["Gemeinschaftsgarten (gemeinschaftliche Nutzung)","5","Gemeinschaftsgarten (individuelle Nutzung)","4","Schulgarten (allg. Schulbildung)","16"]},"geometry":{"type":"Point","coordinates":[13.5502469,52.54688525]}},{"type":"Feature","properties":{"name":"Spiritueller Garten an der Panke","address":"Uferstraße 12, 13357 Berlin-Wedding,","status":"Unklar","types":"Gemeinschaftsgarten (gemeinschaftliche Nutzung);#5;#Religiöser Garten;#34","id":"334","Elementtyp":"Element","Pfad":"Lists/Projekte","tags":["Gemeinschaftsgarten (gemeinschaftliche Nutzung)","5","Religiöser Garten","34"]},"geometry":{"type":"Point","coordinates":[13.37380478,52.55088179]}},{"type":"Feature","properties":{"name":"spreeacker e.V.","address":"Wilhelmine-Gemberg-Weg 10-14, 10179 Berlin\n","status":"Laufend","types":"Bildungs-/Lehrgarten;#22;#Dachgarten/-farm;#2;#Gemeinschaftsgarten (individuelle Nutzung);#4;#Heilgarten;#21;#Imkerei;#7;#Jugend - / Kinder-Garten;#33;#Schulgarten (allg. Schulbildung);#16;#sonstige gebäudeintegrierte Gärten;#13;#\"Allmende-Obstbestände\";#28;#Gemeinschaftsgarten (gemeinschaftliche Nutzung);#5","id":"333","Elementtyp":"Element","Pfad":"Lists/Projekte","tags":["Bildungs-/Lehrgarten","22","Dachgarten/-farm","2","Gemeinschaftsgarten (individuelle Nutzung)","4","Heilgarten","21","Imkerei","7","Jugend - / Kinder-Garten","33","Schulgarten (allg. Schulbildung)","16","sonstige gebäudeintegrierte Gärten","13","\"Allmende-Obstbestände\"","28","Gemeinschaftsgarten (gemeinschaftliche Nutzung)","5"]},"geometry":{"type":"Point","coordinates":[13.42474561,52.51083848]}},{"type":"Feature","properties":{"name":"Stadtacker-Stattacker","address":"Columbiadamm 91  10965 Berlin","status":"Laufend","types":"Gemeinschaftsgarten (gemeinschaftliche Nutzung);#5","id":"358","Elementtyp":"Element","Pfad":"Lists/Projekte","tags":["Gemeinschaftsgarten (gemeinschaftliche Nutzung)","5"]},"geometry":{"type":"Point","coordinates":[13.40243272,52.48146231]}},{"type":"Feature","properties":{"name":"Stadtbienenhonig","address":"Ritterstrasse, \n10969 Berlin","status":"Laufend","types":"Imkerei;#7","id":"45","Elementtyp":"Element","Pfad":"Lists/Projekte","tags":["Imkerei","7"]},"geometry":{"type":"Point","coordinates":[13.40640439,52.50209602]}},{"type":"Feature","properties":{"name":"StadtGut Blankenfelde","address":"Hauptstraße 30, \n13159 Berlin","status":"Laufend","types":"Stadt-Farm/Bauernhof;#14;#Gemeinschaftsgarten (gemeinschaftliche Nutzung);#5","id":"42","Elementtyp":"Element","Pfad":"Lists/Projekte","tags":["Stadt-Farm/Bauernhof","14","Gemeinschaftsgarten (gemeinschaftliche Nutzung)","5"]},"geometry":{"type":"Point","coordinates":[13.39356312,52.61628594]}},{"type":"Feature","properties":{"name":"Stadtlaube 2.0: Ein Projekt von RESET","address":"Köpenicker Straße 47/48   10179 Berlin","status":"Geplant (Fläche /Initiative existiert, Realisierung zu erwarten)","types":"Gemeinschaftsgarten (gemeinschaftliche Nutzung);#5;#x_Sonstiges;#18","id":"324","Elementtyp":"Element","Pfad":"Lists/Projekte","tags":["Gemeinschaftsgarten (gemeinschaftliche Nutzung)","5","x_Sonstiges","18"]},"geometry":{"type":"Point","coordinates":[13.42547912,52.51052985]}},{"type":"Feature","properties":{"name":"Stadtteilgarten Schillerkiez","address":"Oderstrasse,\n12049 Berlin","status":"Laufend","types":"Gemeinschaftsgarten (gemeinschaftliche Nutzung);#5","id":"14","Elementtyp":"Element","Pfad":"Lists/Projekte","tags":["Gemeinschaftsgarten (gemeinschaftliche Nutzung)","5"]},"geometry":{"type":"Point","coordinates":[13.41546389,52.47722503]}},{"type":"Feature","properties":{"name":"TDZ  Interkultureller Garten Neukölln","address":"Werbellinstraße 50, \n12053 Berlin","status":"Abgeschlossen","types":"Interkultureller Garten;#8","id":"66","Elementtyp":"Element","Pfad":"Lists/Projekte","tags":["Interkultureller Garten","8"]},"geometry":{"type":"Point","coordinates":[13.43117087,52.4789798]}},{"type":"Feature","properties":{"name":"VitaWert+","address":"FEZ-BerlinÖkoinselKinder-  Jugend- und Familienzentrum- Landesmusikakademie - gemeinnützige Betriebsgesellschaft mbH im FEZ Berlin (KJfz-L-gBmbH)Straße zum FEZ 212459 Berlin","status":"Genehmigt, noch nicht begonnen","types":"Gemeinschaftsgarten (individuelle Nutzung);#4;#Bildungs-/Lehrgarten;#22;#Jugend - / Kinder-Garten;#33;#Selbst-Ernte-/Krautgarten;#12","id":"370","Elementtyp":"Element","Pfad":"Lists/Projekte","tags":["Gemeinschaftsgarten (individuelle Nutzung)","4","Bildungs-/Lehrgarten","22","Jugend - / Kinder-Garten","33","Selbst-Ernte-/Krautgarten","12"]},"geometry":{"type":"Point","coordinates":[13.54846028,52.4615199]}},{"type":"Feature","properties":{"name":"Wriezener Freiraumlabor","address":"Helsingforser Strasse 11-13, \n10243 Berlin","status":"Laufend","types":"Gemeinschaftsgarten (gemeinschaftliche Nutzung);#5","id":"44","Elementtyp":"Element","Pfad":"Lists/Projekte","tags":["Gemeinschaftsgarten (gemeinschaftliche Nutzung)","5"]},"geometry":{"type":"Point","coordinates":[13.44535588,52.50997765]}},{"type":"Feature","properties":{"name":"Wuhlegarten  Interkultureller Garten Berlin-Köpenick","address":"Cardinalplatz 1c, \n12555 Berlin","status":"Laufend","types":"Interkultureller Garten;#8;#Religiöser Garten;#34","id":"12","Elementtyp":"Element","Pfad":"Lists/Projekte","tags":["Interkultureller Garten","8","Religiöser Garten","34"]},"geometry":{"type":"Point","coordinates":[13.571,52.45573]}},{"type":"Feature","properties":{"name":"Zaubergarten ","address":"Invalidenstraße 42  10115 Berlin","status":"Laufend","types":"Guerilla Gardening;#29","id":"352","Elementtyp":"Element","Pfad":"Lists/Projekte","tags":["Guerilla Gardening","29"]},"geometry":{"type":"Point","coordinates":[13.37994822,52.52998725]}},{"type":"Feature","properties":{"name":"Ziegenhof","address":"Danckelmannstraße 16, 14059 Berlin, Germany","status":"Laufend","types":"Gemeinschaftsgarten (gemeinschaftliche Nutzung);#5","id":"347","Elementtyp":"Element","Pfad":"Lists/Projekte","tags":["Gemeinschaftsgarten (gemeinschaftliche Nutzung)","5"]},"geometry":{"type":"Point","coordinates":[13.29044,52.51455]}}]}