{"type":"FeatureCollection","features":[{"type":"Feature","properties":{"name":"Agora Collectiv","address":"Am Sudhaus 2, 12053 Berlin","comment":"","contact":"Annette.Biernath@degewo.de","intern comment":"","status":"laufend","types":"","url":"http://agoracollective.org/events/agora-gartenfest/","":"","id":"","id_Zeile":"2","tags":[]},"geometry":{"type":"Point","coordinates":[13.4305302,52.4790823]}},{"type":"Feature","properties":{"name":"Alfreds Garten","address":"Alfred-Randt-Str. 11, 12559 Berlin","comment":"","contact":"","intern comment":"von Sonja Himmelbeet","status":"laufend","types":"","url":"http://himmelbeet.de/aktuelle-projekte/alfreds-garten-in-koepenick/","":"","id":"","id_Zeile":"3","tags":[]},"geometry":{"type":"Point","coordinates":[13.5990562,52.4389729]}},{"type":"Feature","properties":{"name":"Allmende-Kontor","address":"Tempelhofer Feld, Eingang Oderstr., 12049 Berlin","comment":"","contact":"","intern comment":"","status":"Laufend","types":"","url":"http://www.allmende-kontor.de/","":"","id":"5","id_Zeile":"4","tags":[]},"geometry":{"type":"Point","coordinates":[13.41673,52.47459]}},{"type":"Feature","properties":{"name":"Bettinchen","address":"Senftenberger Ring 45,  13435 Berlin","comment":"","contact":"","intern comment":"","status":"Laufend","types":"","url":"","":"","id":"327","id_Zeile":"5","tags":[]},"geometry":{"type":"Point","coordinates":[13.3612015877662,52.6053446010196]}},{"type":"Feature","properties":{"name":"Blohmgarten","address":"Blohmstr. 71-73, 12307 Berlin","comment":"","contact":"generationengarten@nusz.de, Heidi Simbritzki-Schwarz,  Tel. 75 50 31 46","intern comment":"es sind Pachtverträge mit dem Träger für je 1 jahr / Beet abzuschließen, aber mitmachen kann jeder","status":"laufend","types":"","url":"https://www.nusz.de/start/aktiv-im-stadtteil/nachbarschaftsprojekte/blohmgarten-interkultureller-generationengarten/","":"","id":"","id_Zeile":"6","tags":[]},"geometry":{"type":"Point","coordinates":[13.38036,52.39015]}},{"type":"Feature","properties":{"name":"Bohnen für die Marie","address":"Marienburger Str. 41,  10405 Berlin","comment":"","contact":"","intern comment":"","status":"Laufend","types":"","url":"http://freundeskreismarie.wordpress.com/","":"","id":"40","id_Zeile":"7","tags":[]},"geometry":{"type":"Point","coordinates":[13.4243811,52.5349536]}},{"type":"Feature","properties":{"name":"Bunte Beete","address":"Zeughofstr. 24, 10997 Berlin","comment":"","contact":"","intern comment":"","status":"Laufend","types":"","url":"http://buntebeete.wordpress.com/","":"","id":"13","id_Zeile":"8","tags":[]},"geometry":{"type":"Point","coordinates":[13.4358366,52.5014849]}},{"type":"Feature","properties":{"name":"Bunter Garten Buchholz","address":"Aubertstr. 1,   13127 Berlin","comment":"","contact":"bunter.garten.buchholz@googlemail.com ; karlludwighoffmann@googlemail.com, Karl-Ludwig Hoffmann Bunter Garten Buchholz e.V. Vorsitzender, Garten-Tel: 01577-4700768","intern comment":"","status":"Laufend","types":"","url":"","":"","id":"26","id_Zeile":"9","tags":[]},"geometry":{"type":"Point","coordinates":[13.4166387140862,52.6084526101689]}},{"type":"Feature","properties":{"name":"Bürgergarten im Stadtgarten Moabit","address":"Siemensstr. 27,    10551 Berlin","comment":"","contact":"","intern comment":"","status":"Laufend","types":"","url":"http://www.stephankiez.de/cms/front_content.php","":"","id":"328","id_Zeile":"10","tags":[]},"geometry":{"type":"Point","coordinates":[13.3361509931847,52.5335859789991]}},{"type":"Feature","properties":{"name":"Charlottes Garten","address":"Wansdorfer Steig 16, 13587 Berlin","comment":"","contact":"JenniferSchmieder@gmx.de","intern comment":"eine ehemalige, die dort gärtnerte meinte, zu ihrer Zeit, war das öffentlich...","status":"","types":"","url":"https://charlottesgarten.wordpress.com/","":"","id":"","id_Zeile":"11","tags":[]},"geometry":{"type":"Point","coordinates":[13.2050326,52.5567097]}},{"type":"Feature","properties":{"name":"Die Gärtnerei","address":"Hermannstr. 84, 12051 Berlin","comment":"","contact":"info@diegaertnerei.berlin","intern comment":"bin mir nicht sicher, ob wir sie mitaufnehmen, Gudrun meint das ist eher ein Bildungsprojekt","status":"laufend","types":"","url":"http://diegaertnerei.berlin/gartenschule/","":"","id":"","id_Zeile":"12","tags":[]},"geometry":{"type":"Point","coordinates":[13.42894,52.47137]}},{"type":"Feature","properties":{"name":"Elstergarten","address":"Graunstr. 33, 13355 Berlin","comment":"","contact":"elster-garten@gmx.de","intern comment":"auch Gruppe F Frau Walther verbindet, habe nochmal angeschrieben_30.11. ; Medlung über die DEWEGO","status":"laufend","types":"","url":"http://www.brunnenviertel-brunnenstrasse.de/Nachricht.aktuell0+M53e32a08c57.0.html","":"","id":"","id_Zeile":"13","tags":[]},"geometry":{"type":"Point","coordinates":[13.39839,52.54509]}},{"type":"Feature","properties":{"name":"Esperanto-Garten","address":"Schudomastr. 32,12055 Berlin","comment":"","contact":"rolfkemnitzer@yahoo.de, Rolf Kemnitzer John-Schehr-Straße 36 10407 Berlin Tel: 0176 84823747","intern comment":"","status":"laufend","types":"","url":"","":"","id":"","id_Zeile":"14","tags":[]},"geometry":{"type":"Point","coordinates":[13.453439,52.4725802]}},{"type":"Feature","properties":{"name":"Familiengarten der VillaNova","address":"Rauchstr. 66, 13587 Berlin","comment":"","contact":"Sabina.Adleff@kompaxx.de","intern comment":"Über Agnes (Spandau)","status":"laufend","types":"","url":"http://www.kompaxx.de/index.php?id=62","":"","id":"","id_Zeile":"15","tags":[]},"geometry":{"type":"Point","coordinates":[13.2093436,52.5616836]}},{"type":"Feature","properties":{"name":"Familiengarten Kotti","address":"Oranienstr. 34, 10999 Berlin","comment":"Hinterhof","contact":"Tel.: 030/ 614 3556 e-mail: kotti.neriman-kurt@online.de, Neriman Kurt","intern comment":"","status":"Laufend","types":"","url":"http://www.kotti-berlin.de/index.php/familiengarten","":"","id":"73","id_Zeile":"16","tags":[]},"geometry":{"type":"Point","coordinates":[13.2093436,52.5616836]}},{"type":"Feature","properties":{"name":"FrobenGarten","address":"Frobenstr. 17, 13585 Berlin","comment":"","contact":"Gruppe F Bettina Walther walther@gruppef.com","intern comment":"","status":"laufend","types":"","url":"http://schoeneberger-norden.de/FrobenGarten-Aufruf-zum-Mitmachen.4829.0.html","":"","id":"","id_Zeile":"17","tags":[]},"geometry":{"type":"Point","coordinates":[13.1953538,52.5465481]}},{"type":"Feature","properties":{"name":"G13 Familienurwald","address":"Glogauer Str. 13, 10999 Berlin","comment":"","contact":"","intern comment":"","status":"Laufend","types":"","url":"http://glogauer13.wordpress.com/","":"","id":"329","id_Zeile":"18","tags":[]},"geometry":{"type":"Point","coordinates":[13.4360363816147,52.4923093291201]}},{"type":"Feature","properties":{"name":"Garten der GraefeKids","address":"Hasenheide 44, 10967 Berlin","comment":"","contact":"Kontakt: GrafeKids,  Tel.: 680 75 375 ab ca. 14:00 Uhr erreichbar oder per mail: graefe-kids@nachbarschaftshaus.de","intern comment":"","status":"Laufend","types":"","url":"","":"","id":"58","id_Zeile":"19","tags":[]},"geometry":{"type":"Point","coordinates":[13.4170275509262,52.4901492415328]}},{"type":"Feature","properties":{"name":"Garten der Hoffnung / Bustan-ul-amal","address":"Alfred-Randt-Str. 19, 12559 Berlin","comment":"","contact":"","intern comment":"","status":"Laufend","types":"","url":"www.garten-der-hoffnung.net","":"","id":"306","id_Zeile":"20","tags":[]},"geometry":{"type":"Point","coordinates":[13.60458,52.440282]}},{"type":"Feature","properties":{"name":"Gärten der Künste","address":"Pallasstr. 6a,  10781 Berlin","comment":"","contact":"","intern comment":"","status":"Laufend","types":"","url":"","":"","id":"64","id_Zeile":"21","tags":[]},"geometry":{"type":"Point","coordinates":[13.3584058846558,52.4947284411823]}},{"type":"Feature","properties":{"name":"Garten der Länder in Mariengrün","address":"Tirschenreuther Ring 14a, 12279 Berlin","comment":"","contact":"030 264852613  Dewego; Annette.Biernath@degewo.de","intern comment":"","status":"laufend","types":"","url":"","":"","id":"","id_Zeile":"22","tags":[]},"geometry":{"type":"Point","coordinates":[13.3458929,52.4100273]}},{"type":"Feature","properties":{"name":"Garten und Seele","address":"Akazienstr. 27, 10823 Berlin","comment":"","contact":"Aljona Nowokreschenow; aljona@garten-und-seele.de","intern comment":"von Grünanteil, schreibe ich an_ 04.12._CH","status":"","types":"","url":"http://garten-und-seele.de/","":"","id":"","id_Zeile":"23","tags":[]},"geometry":{"type":"Point","coordinates":[13.3551337,52.4867091]}},{"type":"Feature","properties":{"name":"Wir ernten was wir säen","address":"Wiecker Str. 8-10,  13051 Berlin","comment":"Hohenschönhausen-Nord, Ostseeviertel","contact":"garteninitiative@sozdia.de","intern comment":"","status":"Laufend","types":"","url":"http://www.sozdia.de/Garteninitiative.914.0.html","":"","id":"56","id_Zeile":"24","tags":[]},"geometry":{"type":"Point","coordinates":[13.4959042736801,52.5686330754756]}},{"type":"Feature","properties":{"name":"Gartenland am Beerenpfuhl","address":"Tangermünder Str. 26-28, 12627 Berlin","comment":"","contact":"","intern comment":"","status":"Laufend","types":"","url":"file://http://www.helle-promenade.de/236.0.html","":"","id":"354","id_Zeile":"25","tags":[]},"geometry":{"type":"Point","coordinates":[13.6071363281724,52.5440157550073]}},{"type":"Feature","properties":{"name":"Gemeinschaftsgarten am Blasewitzer Ring","address":"Blasewitzer Ring 28-34, 13593 Berlin","comment":"","contact":"walther@gruppef.com, marie.gurke@web.de","intern comment":"","status":"laufend","types":"","url":"","":"","id":"","id_Zeile":"26","tags":[]},"geometry":{"type":"Point","coordinates":[13.1756209,52.520519]}},{"type":"Feature","properties":{"name":"Gemeinschaftsgarten an Offenen Familienwohnung von Casablanca","address":"Kraepelinweg 17, 13589 Berlin","comment":"","contact":"Dörthe Kreckel      Tel: 37151520    dkreckel@g-casablanca.de","intern comment":"Über Agnes (Spandau)    seit 2017","status":"laufend","types":"","url":"","":"","id":"","id_Zeile":"27","tags":[]},"geometry":{"type":"Point","coordinates":[13.151187,52.5545982]}},{"type":"Feature","properties":{"name":"Gemeinschaftsgarten in der Buschallee","address":"Buschallee 91a-93a, 13088 Berlin","comment":"","contact":"Ulrich Balling: 'balling@snafu.de ","intern comment":"","status":"","types":"","url":"http://www.das-leben-wagen.org/","":"","id":"","id_Zeile":"28","tags":[]},"geometry":{"type":"Point","coordinates":[13.4742532,52.5536847]}},{"type":"Feature","properties":{"name":"Gemeinschaftsgarten Centre Français","address":"Müllerstrasse 74 13349 Berlin","comment":"","contact":"gaerten@centre-francais.de","intern comment":"von Sonja Himmelbeet","status":"laufend","types":"","url":"http://centre-francais.de/de/der-gemeinschaftsgarten/","":"","id":"","id_Zeile":"29","tags":[]},"geometry":{"type":"Point","coordinates":[13.3391068,52.5583852]}},{"type":"Feature","properties":{"name":"Gemeinschaftsgarten im Gut Hellersdorf","address":"Alt Hellersdorf 17, 12629 Berlin","comment":"","contact":"gartenbau@prinzessinnengarten.net","intern comment":"","status":"laufend","types":"","url":"https://guthellersdorf.net/ueber/","":"","id":"","id_Zeile":"30","tags":[]},"geometry":{"type":"Point","coordinates":[13.5944514,52.5389044]}},{"type":"Feature","properties":{"name":"Gemeinschaftsgarten im KGK NCR","address":"Sonnenallee 187, 12059 Berlin","comment":"","contact":"koloniencr@gmx.de,  0177 215 80 06 > Sabine Karau","intern comment":"Naturnaher Mehrgenerationengarten >Projektgarten unter dem Motto „naturgemäßes generationsübergreifendes Gärtnern“ f","status":"laufend","types":"","url":"http://map.neue-nachbarschaft.de/projekt/142/35","":"","id":"","id_Zeile":"31","tags":[]},"geometry":{"type":"Point","coordinates":[13.45102,52.47602]}},{"type":"Feature","properties":{"name":"Gemeinschaftsgarten im KGK POG Potsdamer Güterbahnhof","address":"im Park am Gleisdreieck, Eingang Bülowstr., 10963 Berlin","comment":"","contact":"","intern comment":"","status":"Laufend","types":"","url":"https://gruen-berlin.de/gleisdreieck/angebote/gaerten-im-garten","":"","id":"326","id_Zeile":"32","tags":[]},"geometry":{"type":"Point","coordinates":[13.3687491217041,52.4966758960629]}},{"type":"Feature","properties":{"name":"Gemeinschaftsgarten Ohlauerstraße 22","address":"Ohlauerstr. 22, 10999 Berlin","comment":"","contact":"Kevin.Eggebrecht@johanniter.de","intern comment":"","status":"laufend","types":"","url":"","":"","id":"","id_Zeile":"33","tags":[]},"geometry":{"type":"Point","coordinates":[13.43043,52.49601]}},{"type":"Feature","properties":{"name":"Gemeinschaftsgarten Zehlenwandler","address":"Stewardstr./Am Waldfriedhof, 14169 Berlin","comment":"","contact":"zehlenwandel@gmail.com,","intern comment":"keine Rückmeldung, keine Telefonnummer, habe nochmal angeschrieben_30.11.","status":"","types":"","url":"https://zehlenwandel.wordpress.com/gemeinschaftsgarten/","":"","id":"","id_Zeile":"34","tags":[]},"geometry":{"type":"Point","coordinates":[13.26301,52.45241]}},{"type":"Feature","properties":{"name":"Generationengarten Begegnungsstätte Falckensteinstraße","address":"Falckensteinstr. 6,  10997 Berlin","comment":"","contact":"","intern comment":"","status":"Laufend","types":"","url":"http://www.falckensteinstrasse.de/garten.htm","":"","id":"71","id_Zeile":"35","tags":[]},"geometry":{"type":"Point","coordinates":[13.44256,52.49955]}},{"type":"Feature","properties":{"name":"Generationengarten Boseclub","address":"Bosestr. 6,  12103 Berlin","comment":"","contact":"","intern comment":"","status":"Laufend","types":"","url":"http://www.generationengaerten.de/index.php?option=com_content&view=article&id=13&Itemid=6","":"","id":"72","id_Zeile":"36","tags":[]},"geometry":{"type":"Point","coordinates":[13.3787301379593,52.4629582048925]}},{"type":"Feature","properties":{"name":"Generationengarten Kiezanker 36","address":"Cuvrystr. 13/14, 10997 Berlin","comment":"","contact":"Tel: 22502401","intern comment":"","status":"Laufend","types":"","url":"","":"","id":"75","id_Zeile":"37","tags":[]},"geometry":{"type":"Point","coordinates":[13.4437725079346,52.49879021348]}},{"type":"Feature","properties":{"name":"Generationengarten Pestalozzi-Treff","address":"Pestalozzistr. 1a,  12623 Berlin","comment":"","contact":"Tel: (030) 56 58 69 20","intern comment":"","status":"Laufend","types":"","url":"https://www.hilfelotse-berlin.de/detail/db/berlin/Stadtteilzentrum-Pestalozzi-Treff/aid/28320/","":"","id":"77","id_Zeile":"38","tags":[]},"geometry":{"type":"Point","coordinates":[13.614299528836,52.510175960196]}},{"type":"Feature","properties":{"name":"Gleisbeet","address":"Helsingforser Str. 11-13,  10243 Berlin","comment":"","contact":"","intern comment":"","status":"Laufend","types":"","url":"http://www.gleisbeet.de/","":"","id":"44","id_Zeile":"39","tags":[]},"geometry":{"type":"Point","coordinates":[13.4453558846558,52.5099776456387]}},{"type":"Feature","properties":{"name":"GU Blume","address":"Blumberger Damm 163-165, 12685 Berlin","comment":"","contact":"Deborah Brüggemann und ich bin die Ehrenamtskoordinatorin der Gemeinschaftsunterkunft.  ehrenamt-blumberger@prisod-wohnen.de","intern comment":"","status":"laufend","types":"","url":"https://www.prisod.de/index.php/projekte/35-pricing-table/detailed/180-ein-interkultureller-garten-fuer-alle","":"","id":"","id_Zeile":"40","tags":[]},"geometry":{"type":"Point","coordinates":[13.57339,52.5476]}},{"type":"Feature","properties":{"name":"Helle Oase","address":"Tangermünder Str. 127-129, 12627 Berlin","comment":"","contact":"kontakt@helle-oase.de,","intern comment":"der ist eigentlich nicht neu, tauchte aber in der Bestandstabelle nicht auf, habt Rückmeldung bekommen, sind noch da!","status":"laufend","types":"","url":"https://helleoase.wordpress.com/","":"","id":"","id_Zeile":"41","tags":[]},"geometry":{"type":"Point","coordinates":[13.6087,52.538829]}},{"type":"Feature","properties":{"name":"Himmelbeet","address":"Ruheplatzstr. 12, 13347 Berlin","comment":"","contact":"Tel:  +49 (0) 162 2987205 mail@himmelbeet.de","intern comment":"","status":"Laufend","types":"","url":"","":"","id":"340","id_Zeile":"42","tags":[]},"geometry":{"type":"Point","coordinates":[13.3501963485489,52.5518639365812]}},{"type":"Feature","properties":{"name":"Hofgarten am Mariannenplatz","address":"Mariannenstraße 16-18, 10999 Berlin","comment":"","contact":"030 264852613 Dewego; Annette.Biernath@degewo.de","intern comment":"über Telefonat","status":"laufend","types":"","url":"","":"","id":"","id_Zeile":"43","tags":[]},"geometry":{"type":"Point","coordinates":[13.33618,52.419]}},{"type":"Feature","properties":{"name":"Interkulturelle Garten-AG","address":"Mehringdamm 114, 10965 Berlin","comment":"im Familienzentrum","contact":"jeanine.fornacon@googlemail.com,","intern comment":"","status":"Laufend","types":"","url":"","":"","id":"337","id_Zeile":"44","tags":[]},"geometry":{"type":"Point","coordinates":[13.385223151451,52.4866658337289]}},{"type":"Feature","properties":{"name":"Interkultureller Garten Altglienicke Datscha","address":"Nelkenweg 63, 12524 Berlin","comment":"Mohnweg, Ecke Nelkenweg ","contact":"Tel.: 030 - 65 57 561","intern comment":"Rudower Straße 51, 12557 Berlin","status":"Laufend","types":"","url":"","":"","id":"10","id_Zeile":"45","tags":[]},"geometry":{"type":"Point","coordinates":[13.5391576322937,52.4077026636469]}},{"type":"Feature","properties":{"name":"Interkultureller Garten auf dem Kinderbauernhof","address":" 'Wiener Str. 59b, 10999 Berlin","comment":"im Görlitzer Park","contact":"Tel: 030/69 53 52 93 , Claudia Hiesl","intern comment":"","status":"Laufend","types":"","url":"","":"","id":"15","id_Zeile":"46","tags":[]},"geometry":{"type":"Point","coordinates":[13.4378234,52.4957523]}},{"type":"Feature","properties":{"name":"Interkultureller Garten Berlin-Lichtenberg","address":"Liebenwalder Str. 12-18, 13055 Berlin","comment":"","contact":"","intern comment":"","status":"Laufend","types":"","url":"http://www.interkulturellergarten.de ; http://www.sozdia.de/UmweltKontaktstelle.1327.0.html","":"","id":"18","id_Zeile":"47","tags":[]},"geometry":{"type":"Point","coordinates":[13.5010002,52.5364398]}},{"type":"Feature","properties":{"name":"Interkultureller Garten City im Familiengarten Mitte","address":"Lützowstr. 28,  10785 Berlin","comment":"","contact":"Tel: (030) 25 79 78 63, E-Mail: fetibayran@gmx.de","intern comment":"","status":"","types":"","url":"","":"","id":"21","id_Zeile":"48","tags":[]},"geometry":{"type":"Point","coordinates":[13.363443,52.50358]}},{"type":"Feature","properties":{"name":"Interkultureller Garten der Generationen (SUZ Mitte)","address":"Seestr. 74,  13347 Berlin","comment":"","contact":"fuhrmann@suz-mitte.de","intern comment":"","status":"Laufend","types":"","url":"www.suz-mitte.de","":"","id":"20","id_Zeile":"49","tags":[]},"geometry":{"type":"Point","coordinates":[13.3638523336601,52.5559011710599]}},{"type":"Feature","properties":{"name":"Interkultureller Garten des SOS Kinderdorf","address":"Gatower Str. 199, 13595 Berlin","comment":"","contact":"Jennifer Linn Schreiter    Telefon 030 3699698-0, jennifer-linn.schreiter@sos-kinderdorf.de","intern comment":"Über Agnes (Spandau)    seit 2016","status":"laufend","types":"","url":"http://www.sos-kinderdorf.de/kinderdorf-berlin/angebot-berlin/interkultureller-garten","":"","id":"","id_Zeile":"50","tags":[]},"geometry":{"type":"Point","coordinates":[13.179534,52.501455]}},{"type":"Feature","properties":{"name":"Interkultureller Garten Marzahn","address":"Golliner Str. 11, 12689 Berlin","comment":"","contact":"","intern comment":"","status":"Laufend","types":"","url":"http://www.stadtumbau-berlin.de/1408.html","":"","id":"19","id_Zeile":"51","tags":[]},"geometry":{"type":"Point","coordinates":[13.5809682209015,52.5681139025586]}},{"type":"Feature","properties":{"name":"Interkultureller Gemeinschaftsgarten an der Jeremia-Kirche","address":"Burbacher Weg 3, 13583 Berlin","comment":"","contact":"Fr. Schönecke: 372 62 35           Hr.Fleischhauer: michaelfly@web.de","intern comment":"Über Agnes (Spandau)    Gründungsjahr 2006!","status":"laufend","types":"","url":"http://www.stadtentwicklung.berlin.de/staedtebau/foerderprogramme/stadtumbau/Gemeinschaftsgarten-an-der-Jeremia-Kirche-P.1627.0.html                                PDF: http://www.stadtentwicklung.berlin.de/staedtebau/foerderprogramme/stadtumbau/Gemeinschaftsgarten-an-der-Jeremia-Kirche-P.1627.2.html                                                                   https://anstiftung.de/selbermachen?catid=0&id=93","":"","id":"","id_Zeile":"52","tags":[]},"geometry":{"type":"Point","coordinates":[13.178989,52.547416]}},{"type":"Feature","properties":{"name":"Interkultureller Gemeinschaftsgarten der Zufluchtgemeinde Falkenhagener Feld Ost","address":"Westerwaldstr. 16, 13589 Berlin","comment":"","contact":"Fr. Clausen: 3722523","intern comment":"Über Agnes (Spandau)","status":"laufend","types":"","url":"http://www.zuflucht-gemeinde.de/interkulturelles/","":"","id":"","id_Zeile":"53","tags":[]},"geometry":{"type":"Point","coordinates":[13.17857,52.550566]}},{"type":"Feature","properties":{"name":"Interkultureller Gemeinschaftsgarten Garten-Buch","address":"Groscurthstr. 33, 13125 Berlin","comment":"","contact":"info@ubb.de, Ilona Winter Umweltbüro für Berlin-Brandenburg e.V. Ueckermünder Str. 3 10439 Berlin   Tel. 030/ 421 37 00","intern comment":"","status":"laufend","types":"","url":"","":"","id":"","id_Zeile":"54","tags":[]},"geometry":{"type":"Point","coordinates":[13.497983,52.631601]}},{"type":"Feature","properties":{"name":"Interkultureller Gemeinschaftsgarten Gatow","address":"Gatower Str. 199, 13595 Berlin","comment":"","contact":"Jennifer-Linn.Schreiter@sos-kinderdorf.de, 3699698-0 SOS Kinderdorf;","intern comment":"","status":"laufend","types":"","url":"http://www.sos-kinderdorf.de/kinderdorf-berlin/angebot-berlin/interkultureller-garten","":"","id":"","id_Zeile":"55","tags":[]},"geometry":{"type":"Point","coordinates":[13.17947,52.501455]}},{"type":"Feature","properties":{"name":"Interkultureller Generationengarten Lichtenrade – IKGG","address":"Blohmstr. 71-73, 12309 Berlin","comment":"","contact":"","intern comment":"","status":"Laufend","types":"","url":"https://www.nusz.de/start/aktiv-im-stadtteil/nachbarschaftsprojekte/blohmgarten-interkultureller-generationengarten/","":"","id":"39","id_Zeile":"56","tags":[]},"geometry":{"type":"Point","coordinates":[13.381055604477,52.3894025082596]}},{"type":"Feature","properties":{"name":"Interkultureller Kiez-Garten","address":"Friedrichstr. 2, 10969 Berlin","comment":"am Mehringplatz","contact":"","intern comment":"","status":"Laufend","types":"","url":"","":"","id":"338","id_Zeile":"57","tags":[]},"geometry":{"type":"Point","coordinates":[13.391777772415,52.4999369190649]}},{"type":"Feature","properties":{"name":"Interkultureller Schulgarten Oberschöneweide","address":"Kottmeierstr. 2,  12459 Berlin","comment":"","contact":"","intern comment":"","status":"Laufend","types":"","url":"","":"","id":"25","id_Zeile":"58","tags":[]},"geometry":{"type":"Point","coordinates":[13.5243884834671,52.4626830736898]}},{"type":"Feature","properties":{"name":"Karma Garten","address":"Richardplatz 3K, 12055 Berlin","comment":"","contact":"hello@karma-kultur.de, Larissa Krause","intern comment":"zwischen Richardplatz und Donaustraße","status":"laufend","types":"","url":"","":"","id":"","id_Zeile":"59","tags":[]},"geometry":{"type":"Point","coordinates":[13.446138,52.475304]}},{"type":"Feature","properties":{"name":"Käthes Garten","address":"Käthe-Dorsch-Ring, 12353 Berlin","comment":"","contact":"Ansprechpartnerin ist Annett Biernath vom Kundenzentrum Süd der degewo (Anette.Biernath@degewo.de)","intern comment":"von der Degewo startet  Gropiusstadt Mieter*innengärten","status":"laufend","types":"","url":"https://www.degewo.de/wohnen-in-berlin/berlin-erleben/termine-veranstaltungen/veranstaltung/veranstaltung/kaethes-garten/","":"","id":"","id_Zeile":"60","tags":[]},"geometry":{"type":"Point","coordinates":[13.478147,52.424848]}},{"type":"Feature","properties":{"name":"Kids' Garden","address":"Hobrechtstr. 67, 12047 Berlin","comment":"","contact":"info@gruen-fuer-kinder.de","intern comment":"","status":"Laufend","types":"","url":"www.gruen-fuer-kinder.de, http://kidsgardenberlin.wordpress.com,","":"","id":"33","id_Zeile":"61","tags":[]},"geometry":{"type":"Point","coordinates":[13.4267985105896,52.4920125714627]}},{"type":"Feature","properties":{"name":"Kiezgarten Fischerstraße","address":"Fischerstr. 19/Zobtener Str. 61, 10317 Berlin","comment":"","contact":"kontakt@kiezgarten.de,","intern comment":"","status":"laufend","types":"","url":"http://kiezgarten.de/","":"","id":"","id_Zeile":"62","tags":[]},"geometry":{"type":"Point","coordinates":[13.4937148531562,52.4959042161294]}},{"type":"Feature","properties":{"name":"Kiezgarten Heinrichtreff","address":"Heinrichstr. 32, 10317 Berlin","comment":"","contact":"","intern comment":"","status":"Laufend","types":"","url":"http://www.stadtumbau-berlin.de/Kiezgarten-Heinrichstrasse.5756.0.html","":"","id":"52","id_Zeile":"63","tags":[]},"geometry":{"type":"Point","coordinates":[13.50013,52.50623]}},{"type":"Feature","properties":{"name":"Kiezgarten Schliemannstrasse","address":"Schliemannstr. 8, 10437 Berlin","comment":"","contact":"","intern comment":"","status":"Laufend","types":"","url":"","":"","id":"35","id_Zeile":"64","tags":[]},"geometry":{"type":"Point","coordinates":[13.4181425178604,52.5418983515158]}},{"type":"Feature","properties":{"name":"Kiezinseln Schöneberg","address":"Cherusker Str. 23a,  10829 Berlin","comment":"","contact":"","intern comment":"","status":"Laufend","types":"","url":"http://www.taeks.de/familie-und-nachbarschaft/kiezinseln/","":"","id":"68","id_Zeile":"65","tags":[]},"geometry":{"type":"Point","coordinates":[13.35861,52.48118]}},{"type":"Feature","properties":{"name":"Klima-Garten im Kinder- und Jugendklub Maxim","address":"Charlottenburgerstr. 117, 13086 Berlin","comment":"","contact":"Tel.: +49+30+92376457, E-Mail: info@im-maxim.de","intern comment":"","status":"Laufend","types":"","url":"http://www.im-maxim.de/","":"","id":"82","id_Zeile":"66","tags":[]},"geometry":{"type":"Point","coordinates":[13.44547,52.55219]}},{"type":"Feature","properties":{"name":"Klunkergarten","address":"Karl-Marx-Str. 66, 12043 Berlin","comment":"","contact":"klunkergarten@horstwirtschaft.de,","intern comment":"","status":"laufend","types":"","url":"","":"","id":"","id_Zeile":"67","tags":[]},"geometry":{"type":"Point","coordinates":[13.43306,52.482191]}},{"type":"Feature","properties":{"name":"Krausnickpark","address":"Oranienburger Str. 20, 10178 Berlin","comment":"","contact":"","intern comment":"","status":"","types":"","url":"https://www.berliner-stadtplan.com/poi/32310_Krausnickpark-Berlin-Mitte ; http://www.berlin.de/ba-mitte/aktuelles/pressemitteilungen/2007/pressemitteilung.235822.php","":"","id":"346","id_Zeile":"68","tags":[]},"geometry":{"type":"Point","coordinates":[13.3966729153442,52.5243160750683]}},{"type":"Feature","properties":{"name":"Kräutergarten am Donahgestell","address":"Dohnagestell 10, 13351 Berlin","comment":"","contact":"rosenthalsonja@himmelbeet.de","intern comment":"von Sonja Himmelbeet","status":"laufend","types":"","url":"","":"","id":"","id_Zeile":"69","tags":[]},"geometry":{"type":"Point","coordinates":[13.33423,52.544464]}},{"type":"Feature","properties":{"name":"Laskerwiese","address":"Laskerstr. 8,  10245 Berlin","comment":"","contact":"","intern comment":"","status":"Laufend","types":"","url":"http://laskerwiese.blogspot.com/","":"","id":"11","id_Zeile":"70","tags":[]},"geometry":{"type":"Point","coordinates":[13.466291,52.501077]}},{"type":"Feature","properties":{"name":"Lern- und Nachbarschaftsgarten im Reuterkiez","address":"Hobrechtstraße 55, 10967 Berlin","comment":"Zugang über Hobrechtstraße 55 hinter dem Ökozentrum für Jugend und Beruf oder Kottbusser Damm 80","contact":"","intern comment":"","status":"Laufend","types":"","url":"","":"","id":"61","id_Zeile":"71","tags":[]},"geometry":{"type":"Point","coordinates":[13.4240785713027,52.4917550169943]}},{"type":"Feature","properties":{"name":"Lichtenberger Stadtgarten","address":"Allee der Kosmonauten 23a, 10315 Berlin ; im Landschaftspark Herzberge","comment":"neben den Gewächshäußern","contact":"","intern comment":"","status":"Laufend","types":"","url":"http://www.stadtgarten.org/","":"","id":"48","id_Zeile":"72","tags":[]},"geometry":{"type":"Point","coordinates":[13.5130832470131,52.5261145756128]}},{"type":"Feature","properties":{"name":"Lichtgarten","address":"Alter Markt 6, 12555 Berlin","comment":"","contact":"NadinFreitag@gmx.de","intern comment":"angeschrieben 04.12. Kontakt kam sehr spät rein","status":"","types":"","url":"https://lichtgarten.blogger.de/","":"","id":"","id_Zeile":"73","tags":[]},"geometry":{"type":"Point","coordinates":[13.578858,52.446142]}},{"type":"Feature","properties":{"name":"Mauergarten","address":"im Mauerpark zw. Lortzing- und Gleimstraße, bei der Max-Schmeling-Halle, 10437 Berlin","comment":"Seit Juli 2013 sind wir offiziell und aktiv auf unserer Wunschfläche:  zw. Lortzing- und Gleimstraße und Max-Schmeling-Halle bzw. Mauerpark - alt.","contact":"","intern comment":"","status":"Laufend","types":"","url":"mauergarten.net","":"","id":"312","id_Zeile":"74","tags":[]},"geometry":{"type":"Point","coordinates":[13.400467,52.545184]}},{"type":"Feature","properties":{"name":"Max Pflanzen","address":"Singerstr. 8a, 10179 Berlin","comment":"Der Garten befindet sich auf der Rückseite des Max-Planck-Gymnasiums, neben der \"Kindergärten City\"","contact":"Frau Kadikowski, Seki der Schule:  030/ 847 1188 30 oder 030/ 847 1188 31","intern comment":"","status":"Laufend","types":"","url":"http://www.mpg-berlin.de/projekt-der-max-pflanzen-gruppe-seit-april-2015-erfolgreich/","":"","id":"423","id_Zeile":"75","tags":[]},"geometry":{"type":"Point","coordinates":[13.424131,52.516365]}},{"type":"Feature","properties":{"name":"MenschenskinderGarten","address":"Fürstenwalder Str. 25, 10243 Berlin","comment":"Zu erreichen ist der Garten über das Familienzentrum Menschenskinder","contact":"Tel. 030-54594906","intern comment":"","status":"Laufend","types":"","url":"http://www.menschenskinder-berlin.eu/nachbarschaftsgarten/","":"","id":"332","id_Zeile":"76","tags":[]},"geometry":{"type":"Point","coordinates":[13.4311571109756,52.519944290068]}},{"type":"Feature","properties":{"name":"Mitmachgarten-Gemeinschaftsgarten im KGK am Stadtpark I","address":"Waghäuseler Str. 10b, 10715 Berlin","comment":"U-Bahnstationen Rathaus-Schöneberg oder Berliner Str.","contact":"Tel. 017622568639","intern comment":"","status":"Laufend","types":"","url":"http://www.kolonie-am-stadtpark.de","":"","id":"392","id_Zeile":"77","tags":[]},"geometry":{"type":"Point","coordinates":[13.3336825,52.4840799]}},{"type":"Feature","properties":{"name":"Mörchenpark","address":"Holzmarktstr. 30, 10243 Berlin, Germany","comment":"","contact":"","intern comment":"","status":"Laufend","types":"","url":"http://moerchenpark.de","":"","id":"322","id_Zeile":"78","tags":[]},"geometry":{"type":"Point","coordinates":[13.4277273,52.5112641]}},{"type":"Feature","properties":{"name":"Moros Garten","address":"Karpfenteichstr. 13, 12435 Berlin","comment":"","contact":"stephi.klose@posteo.de","intern comment":"","status":"Laufend","types":"","url":"","":"","id":"351","id_Zeile":"79","tags":[]},"geometry":{"type":"Point","coordinates":[13.4653979,52.4823945]}},{"type":"Feature","properties":{"name":"Multitude Garten","address":"Karpfenteichstr. 13, 12435 Berlin","comment":"","contact":"","intern comment":"","status":"","types":"","url":"","":"","id":"","id_Zeile":"80","tags":[]},"geometry":{"type":"Point","coordinates":[13.4653979,52.4823945]}},{"type":"Feature","properties":{"name":"Nachbarschaftsgarten Haus Müggelspree","address":"Am Schloßberg 1, 12559 Berlin","comment":"","contact":"mueggelspree@stephanus.org, Tel. 030 34 35 41 0","intern comment":"","status":"laufend","types":"","url":"http://www.stephanus.org/standorte/haus-mueggelspree-in-berlin-koepenick/startseite/","":"","id":"","id_Zeile":"81","tags":[]},"geometry":{"type":"Point","coordinates":[13.584299,52.443557]}},{"type":"Feature","properties":{"name":"Rosa Rose","address":"Jessnerstr. 3, 10247 Berlin","comment":"Zugang über Jessnerstrasse 3 und 13","contact":"","intern comment":"","status":"Laufend","types":"","url":"www.rosarose-garten.net","":"","id":"7","id_Zeile":"82","tags":[]},"geometry":{"type":"Point","coordinates":[13.4742347087372,52.5132859338978]}},{"type":"Feature","properties":{"name":"Wutzkygarten im Nachbarschaftszentrum","address":"Wutzkyallee 88-98, 12353 Berlin","comment":"Grophiusstadt; auf dem Gelände des bezirklichen Nachbarschaftszentrums Wutzkyallee","contact":"","intern comment":"Info kam vom QM Lipzichalle, ich lasse es bestätigen, bzw. frage nach dem Namen der Inis","status":"","types":"","url":"","":"","id":"","id_Zeile":"83","tags":[]},"geometry":{"type":"Point","coordinates":[13.471849,52.42055]}},{"type":"Feature","properties":{"name":"Neustadtoasen Mittelstraße","address":"Mittelstr. 20,  13585 Berlin","comment":"","contact":"jeanine.fornacon@googlemail.com","intern comment":"","status":"Laufend","types":"","url":"http://neustadtoasen.de/standorte/","":"","id":"372","id_Zeile":"84","tags":[]},"geometry":{"type":"Point","coordinates":[13.1990203943039,52.547529288094]}},{"type":"Feature","properties":{"name":"Nikolsburger Platz zum Essen","address":"Nikolsburger Platz 1,  10717 Berlin","comment":"","contact":"","intern comment":"","status":"Laufend","types":"","url":"http://nikolsburgerplatzzumessen.wordpress.com","":"","id":"369","id_Zeile":"85","tags":[]},"geometry":{"type":"Point","coordinates":[13.3286764735412,52.4931978469919]}},{"type":"Feature","properties":{"name":"Offener Garten im KuBiZ","address":"Bernkasteler Str. 78,   13088 Berlin","comment":"","contact":"","intern comment":"","status":"Laufend","types":"","url":"http://offenergarten.blogsport.de","":"","id":"34","id_Zeile":"86","tags":[]},"geometry":{"type":"Point","coordinates":[13.469877909787,52.5571696878302]}},{"type":"Feature","properties":{"name":"Ökogarten am Buschgraben","address":"Ludwigsfelder Str. 30, 14165 Berlin","comment":"Eingang Idsteiner Weg","contact":"","intern comment":"","status":"Laufend","types":"","url":"http://www.schoenow-buschgraben.de/index.php?option=com_content&view=article&id=32&Itemid=49","":"","id":"28","id_Zeile":"87","tags":[]},"geometry":{"type":"Point","coordinates":[13.2446462294998,52.4231837373152]}},{"type":"Feature","properties":{"name":"Pallasseum","address":"Pallasstr. 6, 10781 Berlin","comment":"","contact":"pallasgaerten@gmx.de,","intern comment":"","status":"laufend","types":"","url":"","":"","id":"","id_Zeile":"88","tags":[]},"geometry":{"type":"Point","coordinates":[13.358989,52.49486]}},{"type":"Feature","properties":{"name":"Peace of Land","address":"Am Weingarten 14, 10407 Berlin","comment":"","contact":"Stefan Schneider, stefan@storyhotel.eu","intern comment":"","status":"laufend","types":"","url":"http://www.peaceof.land/","":"","id":"","id_Zeile":"89","tags":[]},"geometry":{"type":"Point","coordinates":[13.458547,52.534667]}},{"type":"Feature","properties":{"name":"Perivoli ","address":"Koppelweg 102,  12347 Berlin","comment":"Ecke Schlangenweg, Neben Kolonie Guter Wille","contact":"","intern comment":"","status":"Laufend","types":"","url":"http://www.foerderverein-tospiti.de/perivoli","":"","id":"23","id_Zeile":"90","tags":[]},"geometry":{"type":"Point","coordinates":[13.416386,52.444687]}},{"type":"Feature","properties":{"name":"Permakultur Datsche","address":"im KGK \"Am Braunschweiger Ufer\", Britzer Damm 54b, 12347 Berlin","comment":"","contact":"datsche@riseup.net ; Jasmin","intern comment":"","status":"laufend","types":"","url":"","":"","id":"357","id_Zeile":"91","tags":[]},"geometry":{"type":"Point","coordinates":[13.4350136759185,52.4574530973885]}},{"type":"Feature","properties":{"name":"Prachttomate","address":"Bornsdorferstr. 9-11, 12053 Berlin","comment":"","contact":"","intern comment":"","status":"Laufend","types":"","url":"","":"","id":"343","id_Zeile":"92","tags":[]},"geometry":{"type":"Point","coordinates":[13.4370038184547,52.477021385549]}},{"type":"Feature","properties":{"name":"Prinzessinnengarten","address":"Prinzenstr. 35-38, 10969 Berlin","comment":"Moritzplatz","contact":"","intern comment":"","status":"Laufend","types":"","url":"http://prinzessinnengarten.net/","":"","id":"9","id_Zeile":"93","tags":[]},"geometry":{"type":"Point","coordinates":[13.4112125289749,52.503034678951]}},{"type":"Feature","properties":{"name":"Pyramidengarten","address":"Columbiadamm 120, 10965 Berlin","comment":"","contact":"","intern comment":"","status":"Laufend","types":"","url":"http://www.pyramidengarten-berlin.de/","":"","id":"6","id_Zeile":"94","tags":[]},"geometry":{"type":"Point","coordinates":[13.4082104293436,52.4820499734563]}},{"type":"Feature","properties":{"name":"Rosenduft","address":"Im Park am Gleisdreieck, Eingang Möckernstr./Hornstr., 10963 Berlin","comment":"","contact":"","intern comment":"","status":"Laufend","types":"","url":"http://www.suedost-ev.de/interkultureller_garten/interkultureller_garten.php","":"","id":"17","id_Zeile":"95","tags":[]},"geometry":{"type":"Point","coordinates":[13.3785937936401,52.4949150143333]}},{"type":"Feature","properties":{"name":"Rübezahl","address":"Tempelhofer Feld, Eingang Oderstr., 12049 Berlin","comment":"","contact":"","intern comment":"","status":"Laufend","types":"","url":"http://www.ruebezahl-tempelhof.de","":"","id":"38","id_Zeile":"96","tags":[]},"geometry":{"type":"Point","coordinates":[13.4182963015747,52.470768283161]}},{"type":"Feature","properties":{"name":"Solidarischer Garten der Jugendtheaterwerkstatt","address":"Gelsenkircher Str. 20, 13583 Berlin","comment":"","contact":"Kristaina Bauer. kristina@jtw-spandau.de Agnes Duda: 0179 340 12 45, agneskjd@web.de","intern comment":"Über Agnes (Spandau)","status":"laufend","types":"","url":"","":"","id":"","id_Zeile":"97","tags":[]},"geometry":{"type":"Point","coordinates":[13.174502,52.545064]}},{"type":"Feature","properties":{"name":"Spiel/Feld Marzahn","address":"Mühlenbecker Weg,  12679 Berlin","comment":"auf der Brache bei der Peter-Pan-Grundschule, direkt vor dem Altenpflegeheim Alpenland","contact":"","intern comment":"","status":"Laufend","types":"","url":"http://www.spielfeldmarzahn.de","":"","id":"361","id_Zeile":"98","tags":[]},"geometry":{"type":"Point","coordinates":[13.5502469015357,52.54688524541]}},{"type":"Feature","properties":{"name":"Spreeacker","address":"Wilhelmine-Gemberg-Weg 10-14, 10179 Berlin","comment":"","contact":"","intern comment":"","status":"Laufend","types":"","url":"Spreeacker e.V.","":"","id":"333","id_Zeile":"99","tags":[]},"geometry":{"type":"Point","coordinates":[13.4247456118477,52.5108384830799]}},{"type":"Feature","properties":{"name":"Stadtacker","address":"Tempelhofer Feld, Eingang Columbiadamm 91, 10965 Berlin","comment":"","contact":"","intern comment":"","status":"Laufend","types":"","url":"http://stadtacker.com","":"","id":"358","id_Zeile":"100","tags":[]},"geometry":{"type":"Point","coordinates":[13.4024327206932,52.4814623098072]}},{"type":"Feature","properties":{"name":"Stadtteilgarten Schillerkiez","address":"Tempelhofer Feld, Eingang Oderstr., 12049 Berlin","comment":"","contact":"","intern comment":"","status":"Laufend","types":"","url":"http://schillerkiez.blogsport.de/","":"","id":"14","id_Zeile":"101","tags":[]},"geometry":{"type":"Point","coordinates":[13.415463888855,52.4772250250878]}},{"type":"Feature","properties":{"name":"Tomate sucht Gießkanne","address":"Friedhofgelände gegenüber der 'Heinrich-Roller-Straße 18","comment":"Eingang über Heinrich-Roller-Straße, gegenüber der Grundschule","contact":"Grüne Liga, Anke Küttner: anke.kuettner@grueneliga-berlin.de","intern comment":"","status":"","types":"","url":"https://www.grueneliga-berlin.de/themen-projekte2/stadtbegruenung/tomate-sucht-giesskanne/","":"","id":"","id_Zeile":"102","tags":[]},"geometry":{"type":"Point","coordinates":[13.423366,52.530402]}},{"type":"Feature","properties":{"name":"Ton Steine Gärten","address":"Bethaniendamm 26,  10997 Berlin","comment":"","contact":"","intern comment":"","status":"Laufend","types":"","url":"http://gaerten-am-mariannenplatz.blogspot.com/","":"","id":"16","id_Zeile":"103","tags":[]},"geometry":{"type":"Point","coordinates":[13.423824,52.505077]}},{"type":"Feature","properties":{"name":"Trial & Error Gartenlabor","address":"Braunschweiger Str. 80, 12055 Berlin","comment":"","contact":"","intern comment":"irgendwo war der schon gelistet, finde ich aber nicht mehr","status":"laufend","types":"","url":"https://www.trial-error.org/workshops-events/gartenlabor/","":"","id":"","id_Zeile":"104","tags":[]},"geometry":{"type":"Point","coordinates":[13.442531,52.470704]}},{"type":"Feature","properties":{"name":"Tucholsky Gärten","address":"Gartenstr. 107, 10155 Berlin","comment":"","contact":"Susanne Gerber  Tucholskystraße 48 0174 3040503 cu@cucusi.de","intern comment":"","status":"laufend","types":"","url":"","":"","id":"","id_Zeile":"105","tags":[]},"geometry":{"type":"Point","coordinates":[13.392109,52.52963]}},{"type":"Feature","properties":{"name":"Umweltgarten am Tempelhofer Feld","address":"Tempelhofer Damm 103, 12099 Berlin","comment":"","contact":"","intern comment":"","status":"Laufend","types":"","url":"Im 'Gartenkolonie \"Tempelhofer Berg\" der Bahnlandwirtschaft, Bezirk Berlin","":"","id":"375","id_Zeile":"106","tags":[]},"geometry":{"type":"Point","coordinates":[13.3860151535118,52.4707892889191]}},{"type":"Feature","properties":{"name":"Urban Garden HTW","address":"Wilhelminenhofstr. 75A, 12437 Berlin","comment":"","contact":"jennifer.hill@student.htw-berlin.de , 030 50190","intern comment":"","status":"laufend","types":"","url":"https://www.facebook.com/pg/urbangarden.htw.berlin/about/?ref=page_internal","":"","id":"","id_Zeile":"107","tags":[]},"geometry":{"type":"Point","coordinates":[13.52668,52.457114]}},{"type":"Feature","properties":{"name":"Urbangarten","address":"Graefestr. 61a, 10967 Berlin","comment":"","contact":"","intern comment":"Ansprechpartnerin ist Inga Selck, Fläche gehört dem BA","status":"laufend","types":"","url":"https://www.facebook.com/pg/UrbangartenKreuzberg/about/?ref=page_internal","":"","id":"","id_Zeile":"108","tags":[]},"geometry":{"type":"Point","coordinates":[13.416708,52.490007]}},{"type":"Feature","properties":{"name":"Willkommen-Kultur-Garten am Refugium Spandau","address":"im Hof der AWO Refugium, Askanierring 71, 13585 Berlin","comment":"Der Garten befindet sich im Hof!","contact":"","intern comment":"","status":"Laufend","types":"","url":"Gemeinschaftsgartenseite des UBB e.V.; el. 030/ 421 37 00   Mailkontakt: info@ubb.de   Webseite: www.ubb.de","":"","id":"417","id_Zeile":"109","tags":[]},"geometry":{"type":"Point","coordinates":[13.201502,52.552355]}},{"type":"Feature","properties":{"name":"Wuhlegarten","address":"Cardinalplatz 1c,  12555 Berlin","comment":"","contact":"","intern comment":"","status":"Laufend","types":"","url":"http://wuhlegarten.de","":"","id":"12","id_Zeile":"110","tags":[]},"geometry":{"type":"Point","coordinates":[13.571,52.45573]}},{"type":"Feature","properties":{"name":"Zaubergarten","address":"Invalidenstr. 43,  10115 Berlin","comment":"hinter dem Naturkundemuseum","contact":"","intern comment":"","status":"","types":"","url":"http://www.oekophysiologie.hu-berlin.de/intranet/studfach/AK/zaubergarten","":"","id":"352","id_Zeile":"111","tags":[]},"geometry":{"type":"Point","coordinates":[13.37909,52.530289]}},{"type":"Feature","properties":{"name":"Zola- Garten","address":"Zolastr., 10178 Berlin","comment":"","contact":"mail@ankewestermann.de","intern comment":"über Grünanteil","status":"laufend","types":"","url":"https://gruenanteil.net/projects/de/zola-garten","":"","id":"","id_Zeile":"112","tags":[]},"geometry":{"type":"Point","coordinates":[13.411583,52.527946]}},{"type":"Feature","properties":{"name":"ZusammenWachsen","address":"im KGK „Am Buschkrug“, Parzelle 360, Buschkrugallee 175, 12359 Berlin","comment":"U7 Parchimer Allee","contact":"","intern comment":"","status":"Laufend","types":"","url":"","":"","id":"382","id_Zeile":"113","tags":[]},"geometry":{"type":"Point","coordinates":[13.4542095066072,52.4482912241847]}}]}